Property_ID,Title,Property_Type,Purpose,Category,Price_AED,Rent_Frequency,Bedrooms,Bathrooms,Area_SQFT,Price_Per_SQFT,Community,City,Tier,Latitude,Longitude,Furnished,Completion_Status,Agency,Date_Listed,Date_Extracted,Price_Category,Bedroom_Label
PF100001,Studio Apartment in Jumeirah Beach Residence,Studio,For Rent,Residential,60524,Yearly,0,1,1303,46.45,Jumeirah Beach Residence,Dubai,Luxury,25.070664,55.137629,Semi-Furnished,Ready,Savills UAE,2025-01-12,2025-02-20,Mid-Tier,Studio
PF100002,Studio Apartment in Bur Dubai,Studio,For Rent,Residential,13476,Yearly,0,1,683,19.73,Bur Dubai,Dubai,Affordable,25.247573,55.297307,Semi-Furnished,Ready,CBRE UAE,2024-02-14,2025-02-20,Affordable,Studio
PF100003,1 BR Penthouse in Bur Dubai,Penthouse,For Rent,Residential,30261,Yearly,1,1,326,92.83,Bur Dubai,Dubai,Affordable,25.258376,55.290393,Unfurnished,Off-Plan,Espace Real Estate,2024-09-04,2025-02-20,Affordable,1 Bedroom
PF100004,2 BR Apartment in Jumeirah Lake Towers,Apartment,For Rent,Residential,45970,Yearly,2,2,1856,24.77,Jumeirah Lake Towers,Dubai,Mid-Tier,25.060534,55.14705,Unfurnished,Ready,Engel & Völkers,2024-12-06,2025-02-20,Affordable,2 Bedrooms
PF100005,Studio Apartment in Dubai Production City,Studio,For Rent,Residential,27110,Yearly,0,1,1850,14.65,Dubai Production City,Dubai,Affordable,25.025676,55.191864,Semi-Furnished,Off-Plan,Savills UAE,2024-12-18,2025-02-20,Affordable,Studio
PF100006,Studio Apartment in Jumeirah Lake Towers,Studio,For Rent,Residential,24001,Yearly,0,1,1233,19.47,Jumeirah Lake Towers,Dubai,Mid-Tier,25.074061,55.149804,Furnished,Off-Plan,Driven Properties,2024-05-30,2025-02-20,Affordable,Studio
PF100007,2 BR Villa in Al Nahda,Villa,For Rent,Residential,27117,Yearly,2,2,3260,8.32,Al Nahda,Dubai,Affordable,25.28609,55.37474,Semi-Furnished,Ready,Savills UAE,2025-01-15,2025-02-20,Affordable,2 Bedrooms
PF100008,4 BR Villa in Dubai Hills Estate,Villa,For Rent,Residential,122125,Yearly,4,4,4136,29.53,Dubai Hills Estate,Dubai,Mid-Tier,25.111489,55.24779,Semi-Furnished,Ready,Fäm Properties,2024-12-24,2025-02-20,Premium,4 Bedrooms
PF100009,1 BR Apartment in Downtown Dubai,Apartment,For Rent,Residential,91942,Yearly,1,1,1943,47.32,Downtown Dubai,Dubai,Luxury,25.192555,55.26862,Semi-Furnished,Off-Plan,Provident Estate,2024-11-17,2025-02-20,Mid-Tier,1 Bedroom
PF100010,3 BR Penthouse in Arjan,Penthouse,For Rent,Residential,44835,Yearly,3,3,1384,32.4,Arjan,Dubai,Affordable,25.037593,55.2159,Unfurnished,Off-Plan,Savills UAE,2024-11-02,2025-02-20,Affordable,3 Bedrooms
PF100011,2 BR Villa in Deira,Villa,For Rent,Residential,22078,Yearly,2,2,4524,4.88,Deira,Dubai,Affordable,25.26957,55.314616,Furnished,Ready,Coldwell Banker,2024-03-28,2025-02-20,Affordable,2 Bedrooms
PF100012,Studio Apartment in Arabian Ranches,Studio,For Rent,Residential,115432,Yearly,0,1,1863,61.96,Arabian Ranches,Dubai,Luxury,25.055218,55.268761,Semi-Furnished,Ready,Allsopp & Allsopp,2024-06-08,2025-02-20,Premium,Studio
PF100013,2 BR Townhouse in Dubai Production City,Townhouse,For Rent,Residential,24889,Yearly,2,2,2754,9.04,Dubai Production City,Dubai,Affordable,25.032795,55.195074,Semi-Furnished,Ready,CBRE UAE,2024-06-14,2025-02-20,Affordable,2 Bedrooms
PF100014,2 BR Villa in Jumeirah Beach Residence,Villa,For Rent,Residential,94528,Yearly,2,2,3413,27.7,Jumeirah Beach Residence,Dubai,Luxury,25.08145,55.133688,Furnished,Off-Plan,Engel & Völkers,2024-10-29,2025-02-20,Mid-Tier,2 Bedrooms
PF100015,Studio Apartment in Palm Jumeirah,Studio,For Rent,Residential,137576,Yearly,0,1,1559,88.25,Palm Jumeirah,Dubai,Luxury,25.107189,55.133817,Furnished,Ready,Engel & Völkers,2024-11-17,2025-02-20,Premium,Studio
PF100016,4 BR Villa in Dubai Marina,Villa,For Rent,Residential,137742,Yearly,4,4,4243,32.46,Dubai Marina,Dubai,Luxury,25.089437,55.133603,Semi-Furnished,Off-Plan,Provident Estate,2024-10-28,2025-02-20,Premium,4 Bedrooms
PF100017,1 BR Townhouse in Dubai Production City,Townhouse,For Rent,Residential,25951,Yearly,1,1,3409,7.61,Dubai Production City,Dubai,Affordable,25.032862,55.196352,Furnished,Ready,Allsopp & Allsopp,2024-04-02,2025-02-20,Affordable,1 Bedroom
PF100018,Studio Apartment in Dubai Silicon Oasis,Studio,For Rent,Residential,18540,Yearly,0,1,1202,15.42,Dubai Silicon Oasis,Dubai,Affordable,25.111044,55.385557,Furnished,Ready,Betterhomes,2024-03-02,2025-02-20,Affordable,Studio
PF100019,Studio Apartment in Dubai Silicon Oasis,Studio,For Rent,Residential,18798,Yearly,0,1,1440,13.05,Dubai Silicon Oasis,Dubai,Affordable,25.12428,55.375685,Semi-Furnished,Off-Plan,Provident Estate,2024-04-08,2025-02-20,Affordable,Studio
PF100020,3 BR Villa in Arjan,Villa,For Rent,Residential,41017,Yearly,3,3,1144,35.85,Arjan,Dubai,Affordable,25.04798,55.208086,Unfurnished,Ready,Allsopp & Allsopp,2024-08-29,2025-02-20,Affordable,3 Bedrooms
PF100021,3 BR Townhouse in Downtown Dubai,Townhouse,For Rent,Residential,125186,Yearly,3,3,2386,52.47,Downtown Dubai,Dubai,Luxury,25.191032,55.275126,Unfurnished,Ready,Driven Properties,2024-04-12,2025-02-20,Premium,3 Bedrooms
PF100022,1 BR Apartment in Al Nahda,Apartment,For Rent,Residential,22764,Yearly,1,1,701,32.47,Al Nahda,Dubai,Affordable,25.282912,55.389386,Furnished,Ready,Espace Real Estate,2024-02-08,2025-02-20,Affordable,1 Bedroom
PF100023,3 BR Penthouse in Bur Dubai,Penthouse,For Rent,Residential,46809,Yearly,3,3,1942,24.1,Bur Dubai,Dubai,Affordable,25.261249,55.290493,Unfurnished,Off-Plan,Engel & Völkers,2024-02-02,2025-02-20,Affordable,3 Bedrooms
PF100024,3 BR Penthouse in Jumeirah Village Circle,Penthouse,For Rent,Residential,54172,Yearly,3,3,1077,50.3,Jumeirah Village Circle,Dubai,Affordable,25.055034,55.217374,Semi-Furnished,Ready,Fäm Properties,2024-11-23,2025-02-20,Mid-Tier,3 Bedrooms
PF100025,Studio Apartment in Downtown Dubai,Studio,For Rent,Residential,83284,Yearly,0,1,2252,36.98,Downtown Dubai,Dubai,Luxury,25.197257,55.281454,Furnished,Ready,Espace Real Estate,2024-04-21,2025-02-20,Mid-Tier,Studio
PF100026,4 BR Apartment in Dubai Marina,Apartment,For Rent,Residential,158742,Yearly,4,4,1953,81.28,Dubai Marina,Dubai,Luxury,25.072898,55.148106,Semi-Furnished,Ready,Savills UAE,2024-06-06,2025-02-20,Premium,4 Bedrooms
PF100027,3 BR Townhouse in Dubai Marina,Townhouse,For Rent,Residential,131014,Yearly,3,3,2023,64.76,Dubai Marina,Dubai,Luxury,25.083895,55.136584,Unfurnished,Ready,Driven Properties,2024-06-15,2025-02-20,Premium,3 Bedrooms
PF100028,2 BR Apartment in Al Nahda,Apartment,For Rent,Residential,16474,Yearly,2,2,2177,7.57,Al Nahda,Dubai,Affordable,25.294323,55.38066,Furnished,Ready,CBRE UAE,2024-03-23,2025-02-20,Affordable,2 Bedrooms
PF100029,1 BR Townhouse in Mirdif,Townhouse,For Rent,Residential,27655,Yearly,1,1,2351,11.76,Mirdif,Dubai,Mid-Tier,25.218491,55.411355,Semi-Furnished,Off-Plan,Savills UAE,2024-11-05,2025-02-20,Affordable,1 Bedroom
PF100030,Studio Apartment in Dubai Sports City,Studio,For Rent,Residential,22310,Yearly,0,1,724,30.81,Dubai Sports City,Dubai,Affordable,25.051779,55.217686,Furnished,Ready,Driven Properties,2024-03-31,2025-02-20,Affordable,Studio
PF100031,4 BR Villa in Jumeirah Village Circle,Villa,For Rent,Residential,86206,Yearly,4,4,2017,42.74,Jumeirah Village Circle,Dubai,Affordable,25.06285,55.215058,Unfurnished,Off-Plan,Betterhomes,2024-10-16,2025-02-20,Mid-Tier,4 Bedrooms
PF100032,3 BR Townhouse in Dubai Marina,Townhouse,For Rent,Residential,96933,Yearly,3,3,379,255.76,Dubai Marina,Dubai,Luxury,25.077171,55.132916,Furnished,Off-Plan,CBRE UAE,2024-06-14,2025-02-20,Mid-Tier,3 Bedrooms
PF100033,4 BR Apartment in Bur Dubai,Apartment,For Rent,Residential,48496,Yearly,4,4,608,79.76,Bur Dubai,Dubai,Affordable,25.262101,55.30102,Semi-Furnished,Ready,Fäm Properties,2024-04-17,2025-02-20,Affordable,4 Bedrooms
PF100034,4 BR Villa in DAMAC Hills,Villa,For Rent,Residential,117249,Yearly,4,4,1394,84.11,DAMAC Hills,Dubai,Mid-Tier,25.018137,55.238093,Unfurnished,Ready,Provident Estate,2024-02-21,2025-02-20,Premium,4 Bedrooms
PF100035,2 BR Penthouse in Jumeirah Beach Residence,Penthouse,For Rent,Residential,149715,Yearly,2,2,933,160.47,Jumeirah Beach Residence,Dubai,Luxury,25.084715,55.127635,Furnished,Off-Plan,Betterhomes,2024-04-24,2025-02-20,Premium,2 Bedrooms
PF100036,2 BR Penthouse in Dubai Hills Estate,Penthouse,For Rent,Residential,83274,Yearly,2,2,1392,59.82,Dubai Hills Estate,Dubai,Mid-Tier,25.107084,55.242026,Furnished,Off-Plan,Provident Estate,2024-08-14,2025-02-20,Mid-Tier,2 Bedrooms
PF100037,3 BR Townhouse in Jumeirah Lake Towers,Townhouse,For Rent,Residential,78000,Yearly,3,3,2214,35.23,Jumeirah Lake Towers,Dubai,Mid-Tier,25.063058,55.143301,Unfurnished,Off-Plan,Allsopp & Allsopp,2024-08-23,2025-02-20,Mid-Tier,3 Bedrooms
PF100038,2 BR Penthouse in Mirdif,Penthouse,For Rent,Residential,71578,Yearly,2,2,2496,28.68,Mirdif,Dubai,Mid-Tier,25.217723,55.408752,Furnished,Off-Plan,Betterhomes,2024-06-13,2025-02-20,Mid-Tier,2 Bedrooms
PF100039,4 BR Penthouse in Jumeirah Beach Residence,Penthouse,For Rent,Residential,195463,Yearly,4,4,1584,123.4,Jumeirah Beach Residence,Dubai,Luxury,25.074928,55.142585,Unfurnished,Ready,Driven Properties,2024-03-31,2025-02-20,Premium,4 Bedrooms
PF100040,3 BR Apartment in Downtown Dubai,Apartment,For Rent,Residential,189775,Yearly,3,3,1107,171.43,Downtown Dubai,Dubai,Luxury,25.194484,55.265799,Unfurnished,Off-Plan,Allsopp & Allsopp,2025-01-06,2025-02-20,Premium,3 Bedrooms
PF100041,4 BR Townhouse in Jumeirah Village Circle,Townhouse,For Rent,Residential,92646,Yearly,4,4,3022,30.66,Jumeirah Village Circle,Dubai,Affordable,25.057148,55.203913,Furnished,Off-Plan,Coldwell Banker,2024-04-06,2025-02-20,Mid-Tier,4 Bedrooms
PF100042,4 BR Townhouse in Dubai Hills Estate,Townhouse,For Rent,Residential,169837,Yearly,4,4,4838,35.1,Dubai Hills Estate,Dubai,Mid-Tier,25.120575,55.234077,Unfurnished,Off-Plan,Engel & Völkers,2024-05-18,2025-02-20,Premium,4 Bedrooms
PF100043,3 BR Villa in Al Nahda,Villa,For Rent,Residential,41700,Yearly,3,3,4226,9.87,Al Nahda,Dubai,Affordable,25.297775,55.388597,Semi-Furnished,Ready,Driven Properties,2024-04-27,2025-02-20,Affordable,3 Bedrooms
PF100044,4 BR Townhouse in Dubai Sports City,Townhouse,For Rent,Residential,46680,Yearly,4,4,2274,20.53,Dubai Sports City,Dubai,Affordable,25.046456,55.219493,Furnished,Ready,Betterhomes,2024-05-12,2025-02-20,Affordable,4 Bedrooms
PF100045,3 BR Apartment in Al Barsha,Apartment,For Rent,Residential,81415,Yearly,3,3,1997,40.77,Al Barsha,Dubai,Mid-Tier,25.116223,55.200913,Unfurnished,Off-Plan,Coldwell Banker,2025-01-22,2025-02-20,Mid-Tier,3 Bedrooms
PF100046,1 BR Apartment in Al Barsha,Apartment,For Rent,Residential,61050,Yearly,1,1,736,82.95,Al Barsha,Dubai,Mid-Tier,25.114068,55.193777,Semi-Furnished,Off-Plan,Betterhomes,2025-01-22,2025-02-20,Mid-Tier,1 Bedroom
PF100047,1 BR Apartment in Dubai Production City,Apartment,For Rent,Residential,27269,Yearly,1,1,846,32.23,Dubai Production City,Dubai,Affordable,25.040128,55.199352,Semi-Furnished,Off-Plan,Engel & Völkers,2024-11-13,2025-02-20,Affordable,1 Bedroom
PF100048,4 BR Penthouse in Arabian Ranches,Penthouse,For Rent,Residential,410431,Yearly,4,4,2126,193.05,Arabian Ranches,Dubai,Luxury,25.061244,55.274273,Unfurnished,Off-Plan,Provident Estate,2024-10-01,2025-02-20,Luxury,4 Bedrooms
PF100049,4 BR Penthouse in Mirdif,Penthouse,For Rent,Residential,114111,Yearly,4,4,1279,89.22,Mirdif,Dubai,Mid-Tier,25.216592,55.40975,Furnished,Off-Plan,Fäm Properties,2024-06-26,2025-02-20,Premium,4 Bedrooms
PF100050,4 BR Apartment in Dubai Silicon Oasis,Apartment,For Rent,Residential,46602,Yearly,4,4,917,50.82,Dubai Silicon Oasis,Dubai,Affordable,25.115525,55.385279,Furnished,Ready,Coldwell Banker,2025-01-27,2025-02-20,Affordable,4 Bedrooms
PF100051,2 BR Penthouse in Bur Dubai,Penthouse,For Rent,Residential,47023,Yearly,2,2,555,84.73,Bur Dubai,Dubai,Affordable,25.247337,55.295603,Semi-Furnished,Ready,Savills UAE,2024-11-26,2025-02-20,Affordable,2 Bedrooms
PF100052,3 BR Apartment in Deira,Apartment,For Rent,Residential,37831,Yearly,3,3,1523,24.84,Deira,Dubai,Affordable,25.27477,55.316569,Semi-Furnished,Ready,Engel & Völkers,2024-09-02,2025-02-20,Affordable,3 Bedrooms
PF100053,2 BR Penthouse in Al Barsha,Penthouse,For Rent,Residential,62844,Yearly,2,2,418,150.34,Al Barsha,Dubai,Mid-Tier,25.106277,55.202777,Semi-Furnished,Ready,Engel & Völkers,2024-08-26,2025-02-20,Mid-Tier,2 Bedrooms
PF100054,4 BR Apartment in Business Bay,Apartment,For Rent,Residential,171654,Yearly,4,4,1913,89.73,Business Bay,Dubai,Mid-Tier,25.187038,55.26826,Semi-Furnished,Off-Plan,Espace Real Estate,2024-03-14,2025-02-20,Premium,4 Bedrooms
PF100055,1 BR Apartment in Al Nahda,Apartment,For Rent,Residential,18566,Yearly,1,1,1852,10.02,Al Nahda,Dubai,Affordable,25.288447,55.378494,Unfurnished,Off-Plan,Coldwell Banker,2024-07-22,2025-02-20,Affordable,1 Bedroom
PF100056,Studio Apartment in Mirdif,Studio,For Rent,Residential,32911,Yearly,0,1,379,86.84,Mirdif,Dubai,Mid-Tier,25.22608,55.409242,Furnished,Ready,Betterhomes,2024-07-29,2025-02-20,Affordable,Studio
PF100057,1 BR Villa in Palm Jumeirah,Villa,For Rent,Residential,129739,Yearly,1,1,1598,81.19,Palm Jumeirah,Dubai,Luxury,25.107171,55.138471,Semi-Furnished,Ready,Engel & Völkers,2024-03-30,2025-02-20,Premium,1 Bedroom
PF100058,2 BR Villa in Mirdif,Villa,For Rent,Residential,67236,Yearly,2,2,1288,52.2,Mirdif,Dubai,Mid-Tier,25.226656,55.411475,Furnished,Ready,Driven Properties,2024-07-09,2025-02-20,Mid-Tier,2 Bedrooms
PF100059,3 BR Penthouse in DAMAC Hills,Penthouse,For Rent,Residential,116230,Yearly,3,3,1112,104.52,DAMAC Hills,Dubai,Mid-Tier,25.01882,55.244612,Furnished,Ready,Driven Properties,2024-12-18,2025-02-20,Premium,3 Bedrooms
PF100060,Studio Apartment in Arabian Ranches,Studio,For Rent,Residential,139177,Yearly,0,1,468,297.39,Arabian Ranches,Dubai,Luxury,25.050244,55.267968,Furnished,Off-Plan,Betterhomes,2024-08-08,2025-02-20,Premium,Studio
PF100061,3 BR Apartment in Bur Dubai,Apartment,For Rent,Residential,64093,Yearly,3,3,1783,35.95,Bur Dubai,Dubai,Affordable,25.255912,55.303774,Furnished,Off-Plan,Espace Real Estate,2025-01-28,2025-02-20,Mid-Tier,3 Bedrooms
PF100062,2 BR Penthouse in Dubai Sports City,Penthouse,For Rent,Residential,49918,Yearly,2,2,2084,23.95,Dubai Sports City,Dubai,Affordable,25.049515,55.226849,Furnished,Ready,Driven Properties,2024-07-15,2025-02-20,Affordable,2 Bedrooms
PF100063,1 BR Penthouse in Al Nahda,Penthouse,For Rent,Residential,25670,Yearly,1,1,1852,13.86,Al Nahda,Dubai,Affordable,25.288628,55.379286,Furnished,Off-Plan,Provident Estate,2024-07-16,2025-02-20,Affordable,1 Bedroom
PF100064,2 BR Townhouse in International City,Townhouse,For Rent,Residential,24446,Yearly,2,2,2613,9.36,International City,Dubai,Affordable,25.164416,55.414233,Furnished,Ready,Coldwell Banker,2024-05-08,2025-02-20,Affordable,2 Bedrooms
PF100065,4 BR Villa in Arjan,Villa,For Rent,Residential,88801,Yearly,4,4,4370,20.32,Arjan,Dubai,Affordable,25.043763,55.201345,Furnished,Off-Plan,Provident Estate,2024-06-30,2025-02-20,Mid-Tier,4 Bedrooms
PF100066,4 BR Townhouse in Jumeirah Village Circle,Townhouse,For Rent,Residential,99022,Yearly,4,4,4884,20.27,Jumeirah Village Circle,Dubai,Affordable,25.059718,55.20651,Unfurnished,Off-Plan,Engel & Völkers,2024-11-08,2025-02-20,Mid-Tier,4 Bedrooms
PF100067,2 BR Townhouse in Mirdif,Townhouse,For Rent,Residential,45097,Yearly,2,2,1338,33.7,Mirdif,Dubai,Mid-Tier,25.225526,55.414511,Semi-Furnished,Ready,Provident Estate,2024-11-01,2025-02-20,Affordable,2 Bedrooms
PF100068,3 BR Townhouse in Jumeirah Lake Towers,Townhouse,For Rent,Residential,110983,Yearly,3,3,4647,23.88,Jumeirah Lake Towers,Dubai,Mid-Tier,25.070536,55.14971,Unfurnished,Ready,Fäm Properties,2024-05-10,2025-02-20,Premium,3 Bedrooms
PF100069,2 BR Apartment in Dubai Hills Estate,Apartment,For Rent,Residential,68931,Yearly,2,2,1423,48.44,Dubai Hills Estate,Dubai,Mid-Tier,25.10481,55.229091,Semi-Furnished,Ready,Engel & Völkers,2024-06-29,2025-02-20,Mid-Tier,2 Bedrooms
PF100070,Studio Apartment in Jumeirah Beach Residence,Studio,For Rent,Residential,80121,Yearly,0,1,1464,54.73,Jumeirah Beach Residence,Dubai,Luxury,25.075588,55.131709,Furnished,Off-Plan,Engel & Völkers,2024-05-05,2025-02-20,Mid-Tier,Studio
PF100071,Studio Apartment in Jumeirah Beach Residence,Studio,For Rent,Residential,68760,Yearly,0,1,2314,29.71,Jumeirah Beach Residence,Dubai,Luxury,25.067682,55.135489,Furnished,Ready,Savills UAE,2024-02-28,2025-02-20,Mid-Tier,Studio
PF100072,Studio Apartment in Jumeirah Village Circle,Studio,For Rent,Residential,25632,Yearly,0,1,785,32.65,Jumeirah Village Circle,Dubai,Affordable,25.060261,55.206323,Semi-Furnished,Ready,CBRE UAE,2024-12-02,2025-02-20,Affordable,Studio
PF100073,3 BR Penthouse in Deira,Penthouse,For Rent,Residential,35691,Yearly,3,3,2056,17.36,Deira,Dubai,Affordable,25.265808,55.311921,Semi-Furnished,Ready,Provident Estate,2024-12-09,2025-02-20,Affordable,3 Bedrooms
PF100074,2 BR Apartment in Jumeirah Lake Towers,Apartment,For Rent,Residential,49762,Yearly,2,2,1282,38.82,Jumeirah Lake Towers,Dubai,Mid-Tier,25.062076,55.131601,Unfurnished,Off-Plan,Savills UAE,2024-02-02,2025-02-20,Affordable,2 Bedrooms
PF100075,2 BR Apartment in Arjan,Apartment,For Rent,Residential,38853,Yearly,2,2,1480,26.25,Arjan,Dubai,Affordable,25.048939,55.21506,Furnished,Ready,Driven Properties,2024-09-20,2025-02-20,Affordable,2 Bedrooms
PF100076,1 BR Penthouse in DAMAC Hills,Penthouse,For Rent,Residential,40264,Yearly,1,1,1220,33.0,DAMAC Hills,Dubai,Mid-Tier,25.030253,55.248968,Furnished,Ready,Espace Real Estate,2024-04-13,2025-02-20,Affordable,1 Bedroom
PF100077,4 BR Townhouse in Jumeirah Village Circle,Townhouse,For Rent,Residential,95670,Yearly,4,4,1368,69.93,Jumeirah Village Circle,Dubai,Affordable,25.058474,55.204082,Unfurnished,Off-Plan,Engel & Völkers,2024-08-25,2025-02-20,Mid-Tier,4 Bedrooms
PF100078,4 BR Apartment in Dubai Marina,Apartment,For Rent,Residential,197439,Yearly,4,4,1620,121.88,Dubai Marina,Dubai,Luxury,25.082574,55.130817,Semi-Furnished,Ready,Driven Properties,2024-05-28,2025-02-20,Premium,4 Bedrooms
PF100079,Studio Apartment in DAMAC Hills,Studio,For Rent,Residential,50005,Yearly,0,1,1017,49.17,DAMAC Hills,Dubai,Mid-Tier,25.02671,55.24383,Furnished,Off-Plan,Engel & Völkers,2024-06-22,2025-02-20,Mid-Tier,Studio
PF100080,3 BR Townhouse in Dubai Marina,Townhouse,For Rent,Residential,154227,Yearly,3,3,3080,50.07,Dubai Marina,Dubai,Luxury,25.076921,55.132392,Unfurnished,Off-Plan,Engel & Völkers,2024-04-23,2025-02-20,Premium,3 Bedrooms
PF100081,3 BR Apartment in Jumeirah Village Circle,Apartment,For Rent,Residential,77768,Yearly,3,3,660,117.83,Jumeirah Village Circle,Dubai,Affordable,25.05539,55.204465,Semi-Furnished,Ready,CBRE UAE,2024-08-25,2025-02-20,Mid-Tier,3 Bedrooms
PF100082,3 BR Apartment in Al Nahda,Apartment,For Rent,Residential,28975,Yearly,3,3,2423,11.96,Al Nahda,Dubai,Affordable,25.289136,55.384529,Unfurnished,Ready,Provident Estate,2024-12-17,2025-02-20,Affordable,3 Bedrooms
PF100083,4 BR Villa in Mirdif,Villa,For Rent,Residential,80814,Yearly,4,4,3939,20.52,Mirdif,Dubai,Mid-Tier,25.228717,55.417894,Semi-Furnished,Ready,Espace Real Estate,2024-02-15,2025-02-20,Mid-Tier,4 Bedrooms
PF100084,4 BR Apartment in Jumeirah Village Circle,Apartment,For Rent,Residential,106788,Yearly,4,4,1971,54.18,Jumeirah Village Circle,Dubai,Affordable,25.050964,55.217845,Unfurnished,Ready,Espace Real Estate,2024-03-30,2025-02-20,Premium,4 Bedrooms
PF100085,2 BR Townhouse in Arjan,Townhouse,For Rent,Residential,49706,Yearly,2,2,4302,11.55,Arjan,Dubai,Affordable,25.054405,55.205875,Furnished,Off-Plan,Provident Estate,2024-11-09,2025-02-20,Affordable,2 Bedrooms
PF100086,4 BR Villa in Arabian Ranches,Villa,For Rent,Residential,222450,Yearly,4,4,2613,85.13,Arabian Ranches,Dubai,Luxury,25.058754,55.276488,Semi-Furnished,Off-Plan,Betterhomes,2024-07-24,2025-02-20,Luxury,4 Bedrooms
PF100087,2 BR Penthouse in Jumeirah Village Circle,Penthouse,For Rent,Residential,40264,Yearly,2,2,2129,18.91,Jumeirah Village Circle,Dubai,Affordable,25.059872,55.204902,Semi-Furnished,Off-Plan,Engel & Völkers,2024-11-09,2025-02-20,Affordable,2 Bedrooms
PF100088,1 BR Villa in Dubai Silicon Oasis,Villa,For Rent,Residential,32968,Yearly,1,1,2263,14.57,Dubai Silicon Oasis,Dubai,Affordable,25.12802,55.379616,Semi-Furnished,Off-Plan,Coldwell Banker,2024-07-12,2025-02-20,Affordable,1 Bedroom
PF100089,1 BR Penthouse in Deira,Penthouse,For Rent,Residential,14849,Yearly,1,1,817,18.18,Deira,Dubai,Affordable,25.269746,55.311304,Unfurnished,Ready,CBRE UAE,2024-03-23,2025-02-20,Affordable,1 Bedroom
PF100090,Studio Apartment in Al Nahda,Studio,For Rent,Residential,20836,Yearly,0,1,890,23.41,Al Nahda,Dubai,Affordable,25.2901,55.382496,Furnished,Off-Plan,Driven Properties,2024-04-20,2025-02-20,Affordable,Studio
PF100091,4 BR Penthouse in Dubai Silicon Oasis,Penthouse,For Rent,Residential,40894,Yearly,4,4,1645,24.86,Dubai Silicon Oasis,Dubai,Affordable,25.127947,55.388587,Unfurnished,Off-Plan,CBRE UAE,2024-08-13,2025-02-20,Affordable,4 Bedrooms
PF100092,4 BR Apartment in Downtown Dubai,Apartment,For Rent,Residential,181156,Yearly,4,4,1477,122.65,Downtown Dubai,Dubai,Luxury,25.207149,55.279335,Furnished,Ready,Engel & Völkers,2024-09-10,2025-02-20,Premium,4 Bedrooms
PF100093,2 BR Apartment in Dubai Hills Estate,Apartment,For Rent,Residential,59425,Yearly,2,2,1628,36.5,Dubai Hills Estate,Dubai,Mid-Tier,25.119823,55.233867,Unfurnished,Ready,Provident Estate,2024-08-10,2025-02-20,Mid-Tier,2 Bedrooms
PF100094,3 BR Villa in Dubai Sports City,Villa,For Rent,Residential,43368,Yearly,3,3,1784,24.31,Dubai Sports City,Dubai,Affordable,25.034579,55.232417,Semi-Furnished,Ready,Engel & Völkers,2024-12-14,2025-02-20,Affordable,3 Bedrooms
PF100095,1 BR Villa in DAMAC Hills,Villa,For Rent,Residential,56154,Yearly,1,1,2430,23.11,DAMAC Hills,Dubai,Mid-Tier,25.026491,55.244137,Unfurnished,Ready,Allsopp & Allsopp,2024-09-26,2025-02-20,Mid-Tier,1 Bedroom
PF100096,2 BR Townhouse in Al Nahda,Townhouse,For Rent,Residential,35042,Yearly,2,2,3825,9.16,Al Nahda,Dubai,Affordable,25.295706,55.378537,Furnished,Off-Plan,Engel & Völkers,2024-07-04,2025-02-20,Affordable,2 Bedrooms
PF100097,1 BR Penthouse in Jumeirah Beach Residence,Penthouse,For Rent,Residential,111974,Yearly,1,1,1770,63.26,Jumeirah Beach Residence,Dubai,Luxury,25.077696,55.142754,Furnished,Off-Plan,Driven Properties,2024-07-01,2025-02-20,Premium,1 Bedroom
PF100098,4 BR Apartment in Palm Jumeirah,Apartment,For Rent,Residential,508447,Yearly,4,4,2334,217.84,Palm Jumeirah,Dubai,Luxury,25.119057,55.147059,Semi-Furnished,Off-Plan,Provident Estate,2024-05-28,2025-02-20,Luxury,4 Bedrooms
PF100099,4 BR Townhouse in Jumeirah Lake Towers,Townhouse,For Rent,Residential,134125,Yearly,4,4,1470,91.24,Jumeirah Lake Towers,Dubai,Mid-Tier,25.071165,55.148168,Furnished,Off-Plan,Engel & Völkers,2024-12-27,2025-02-20,Premium,4 Bedrooms
PF100100,4 BR Townhouse in Downtown Dubai,Townhouse,For Rent,Residential,160836,Yearly,4,4,1088,147.83,Downtown Dubai,Dubai,Luxury,25.205393,55.270934,Furnished,Ready,Espace Real Estate,2024-08-31,2025-02-20,Premium,4 Bedrooms
PF100101,2 BR Townhouse in Dubai Production City,Townhouse,For Rent,Residential,46090,Yearly,2,2,1697,27.16,Dubai Production City,Dubai,Affordable,25.029239,55.202494,Unfurnished,Off-Plan,Allsopp & Allsopp,2024-10-04,2025-02-20,Affordable,2 Bedrooms
PF100102,Studio Apartment in Al Nahda,Studio,For Rent,Residential,11306,Yearly,0,1,1224,9.24,Al Nahda,Dubai,Affordable,25.299103,55.383884,Semi-Furnished,Off-Plan,Allsopp & Allsopp,2024-08-22,2025-02-20,Affordable,Studio
PF100103,Studio Apartment in Deira,Studio,For Rent,Residential,14332,Yearly,0,1,2497,5.74,Deira,Dubai,Affordable,25.262172,55.306872,Unfurnished,Off-Plan,Fäm Properties,2025-01-10,2025-02-20,Affordable,Studio
PF100104,1 BR Penthouse in Jumeirah Beach Residence,Penthouse,For Rent,Residential,61795,Yearly,1,1,1643,37.61,Jumeirah Beach Residence,Dubai,Luxury,25.084505,55.127327,Semi-Furnished,Off-Plan,Driven Properties,2024-03-04,2025-02-20,Mid-Tier,1 Bedroom
PF100105,Studio Apartment in Bur Dubai,Studio,For Rent,Residential,17080,Yearly,0,1,485,35.22,Bur Dubai,Dubai,Affordable,25.262125,55.293287,Furnished,Ready,Provident Estate,2024-10-10,2025-02-20,Affordable,Studio
PF100106,1 BR Penthouse in Dubai Production City,Penthouse,For Rent,Residential,27204,Yearly,1,1,1819,14.96,Dubai Production City,Dubai,Affordable,25.03751,55.200863,Unfurnished,Ready,Coldwell Banker,2024-11-03,2025-02-20,Affordable,1 Bedroom
PF100107,3 BR Penthouse in Jumeirah Beach Residence,Penthouse,For Rent,Residential,145999,Yearly,3,3,434,336.4,Jumeirah Beach Residence,Dubai,Luxury,25.080006,55.127245,Furnished,Off-Plan,Allsopp & Allsopp,2024-09-15,2025-02-20,Premium,3 Bedrooms
PF100108,4 BR Townhouse in International City,Townhouse,For Rent,Residential,29976,Yearly,4,4,3611,8.3,International City,Dubai,Affordable,25.158818,55.423264,Furnished,Ready,Savills UAE,2024-09-20,2025-02-20,Affordable,4 Bedrooms
PF100109,Studio Apartment in Palm Jumeirah,Studio,For Rent,Residential,133713,Yearly,0,1,1297,103.09,Palm Jumeirah,Dubai,Luxury,25.122176,55.14474,Furnished,Ready,Savills UAE,2024-05-16,2025-02-20,Premium,Studio
PF100110,1 BR Townhouse in Jumeirah Lake Towers,Townhouse,For Rent,Residential,67024,Yearly,1,1,1558,43.02,Jumeirah Lake Towers,Dubai,Mid-Tier,25.074373,55.14202,Furnished,Ready,CBRE UAE,2024-06-21,2025-02-20,Mid-Tier,1 Bedroom
PF100111,1 BR Apartment in Mirdif,Apartment,For Rent,Residential,54826,Yearly,1,1,405,135.37,Mirdif,Dubai,Mid-Tier,25.213736,55.415365,Semi-Furnished,Off-Plan,Betterhomes,2024-06-01,2025-02-20,Mid-Tier,1 Bedroom
PF100112,2 BR Apartment in Dubai Hills Estate,Apartment,For Rent,Residential,68952,Yearly,2,2,2024,34.07,Dubai Hills Estate,Dubai,Mid-Tier,25.114422,55.242913,Unfurnished,Off-Plan,CBRE UAE,2024-10-01,2025-02-20,Mid-Tier,2 Bedrooms
PF100113,Studio Apartment in DAMAC Hills,Studio,For Rent,Residential,39811,Yearly,0,1,2363,16.85,DAMAC Hills,Dubai,Mid-Tier,25.021731,55.243102,Semi-Furnished,Off-Plan,Engel & Völkers,2025-01-03,2025-02-20,Affordable,Studio
PF100114,Studio Apartment in Palm Jumeirah,Studio,For Rent,Residential,152781,Yearly,0,1,1945,78.55,Palm Jumeirah,Dubai,Luxury,25.110925,55.131159,Unfurnished,Ready,Allsopp & Allsopp,2025-01-30,2025-02-20,Premium,Studio
PF100115,4 BR Villa in Dubai Silicon Oasis,Villa,For Rent,Residential,39456,Yearly,4,4,1383,28.53,Dubai Silicon Oasis,Dubai,Affordable,25.1164,55.384062,Semi-Furnished,Off-Plan,Coldwell Banker,2024-11-07,2025-02-20,Affordable,4 Bedrooms
PF100116,4 BR Townhouse in Arabian Ranches,Townhouse,For Rent,Residential,373407,Yearly,4,4,4491,83.15,Arabian Ranches,Dubai,Luxury,25.055409,55.261384,Furnished,Ready,Coldwell Banker,2025-01-25,2025-02-20,Luxury,4 Bedrooms
PF100117,1 BR Penthouse in Al Nahda,Penthouse,For Rent,Residential,20374,Yearly,1,1,2157,9.45,Al Nahda,Dubai,Affordable,25.289875,55.383992,Unfurnished,Off-Plan,Driven Properties,2024-07-10,2025-02-20,Affordable,1 Bedroom
PF100118,1 BR Penthouse in International City,Penthouse,For Rent,Residential,14139,Yearly,1,1,673,21.01,International City,Dubai,Affordable,25.169935,55.405765,Semi-Furnished,Off-Plan,Espace Real Estate,2024-03-21,2025-02-20,Affordable,1 Bedroom
PF100119,Studio Apartment in Dubai Production City,Studio,For Rent,Residential,21608,Yearly,0,1,1650,13.1,Dubai Production City,Dubai,Affordable,25.0375,55.194216,Unfurnished,Ready,Driven Properties,2025-01-06,2025-02-20,Affordable,Studio
PF100120,2 BR Townhouse in Arabian Ranches,Townhouse,For Rent,Residential,141442,Yearly,2,2,4506,31.39,Arabian Ranches,Dubai,Luxury,25.047555,55.272535,Furnished,Off-Plan,CBRE UAE,2024-05-25,2025-02-20,Premium,2 Bedrooms
PF100121,Studio Apartment in International City,Studio,For Rent,Residential,21494,Yearly,0,1,1441,14.92,International City,Dubai,Affordable,25.164782,55.420044,Semi-Furnished,Ready,Savills UAE,2024-11-14,2025-02-20,Affordable,Studio
PF100122,Studio Apartment in Mirdif,Studio,For Rent,Residential,23411,Yearly,0,1,1419,16.5,Mirdif,Dubai,Mid-Tier,25.225154,55.41438,Unfurnished,Ready,Espace Real Estate,2024-07-23,2025-02-20,Affordable,Studio
PF100123,4 BR Penthouse in Business Bay,Penthouse,For Rent,Residential,89340,Yearly,4,4,881,101.41,Business Bay,Dubai,Mid-Tier,25.190019,55.274436,Semi-Furnished,Ready,Coldwell Banker,2024-03-18,2025-02-20,Mid-Tier,4 Bedrooms
PF100124,3 BR Townhouse in Bur Dubai,Townhouse,For Rent,Residential,42378,Yearly,3,3,3381,12.53,Bur Dubai,Dubai,Affordable,25.249433,55.293688,Semi-Furnished,Ready,Betterhomes,2024-11-17,2025-02-20,Affordable,3 Bedrooms
PF100125,1 BR Apartment in Business Bay,Apartment,For Rent,Residential,69418,Yearly,1,1,634,109.49,Business Bay,Dubai,Mid-Tier,25.180642,55.268239,Semi-Furnished,Off-Plan,Coldwell Banker,2024-10-06,2025-02-20,Mid-Tier,1 Bedroom
PF100126,1 BR Apartment in Mirdif,Apartment,For Rent,Residential,40334,Yearly,1,1,2060,19.58,Mirdif,Dubai,Mid-Tier,25.213318,55.421764,Unfurnished,Off-Plan,Betterhomes,2024-11-30,2025-02-20,Affordable,1 Bedroom
PF100127,3 BR Apartment in Al Barsha,Apartment,For Rent,Residential,46203,Yearly,3,3,1137,40.64,Al Barsha,Dubai,Mid-Tier,25.104528,55.193625,Unfurnished,Off-Plan,Fäm Properties,2024-04-11,2025-02-20,Affordable,3 Bedrooms
PF100128,Studio Apartment in Jumeirah Beach Residence,Studio,For Rent,Residential,75096,Yearly,0,1,2063,36.4,Jumeirah Beach Residence,Dubai,Luxury,25.069714,55.130504,Furnished,Off-Plan,Allsopp & Allsopp,2025-01-26,2025-02-20,Mid-Tier,Studio
PF100129,Studio Apartment in Deira,Studio,For Rent,Residential,17147,Yearly,0,1,376,45.6,Deira,Dubai,Affordable,25.268895,55.301057,Semi-Furnished,Off-Plan,Savills UAE,2024-07-10,2025-02-20,Affordable,Studio
PF100130,3 BR Townhouse in Deira,Townhouse,For Rent,Residential,28528,Yearly,3,3,3668,7.78,Deira,Dubai,Affordable,25.260117,55.305995,Unfurnished,Off-Plan,Allsopp & Allsopp,2024-12-13,2025-02-20,Affordable,3 Bedrooms
PF100131,Studio Apartment in Bur Dubai,Studio,For Rent,Residential,20472,Yearly,0,1,2084,9.82,Bur Dubai,Dubai,Affordable,25.254977,55.297679,Unfurnished,Off-Plan,Provident Estate,2024-08-21,2025-02-20,Affordable,Studio
PF100132,1 BR Apartment in Dubai Silicon Oasis,Apartment,For Rent,Residential,20630,Yearly,1,1,2473,8.34,Dubai Silicon Oasis,Dubai,Affordable,25.121099,55.389518,Unfurnished,Ready,Provident Estate,2024-07-28,2025-02-20,Affordable,1 Bedroom
PF100133,1 BR Townhouse in Jumeirah Beach Residence,Townhouse,For Rent,Residential,77599,Yearly,1,1,1771,43.82,Jumeirah Beach Residence,Dubai,Luxury,25.078248,55.138104,Furnished,Ready,Engel & Völkers,2025-01-01,2025-02-20,Mid-Tier,1 Bedroom
PF100134,4 BR Penthouse in Al Nahda,Penthouse,For Rent,Residential,60478,Yearly,4,4,1623,37.26,Al Nahda,Dubai,Affordable,25.299185,55.381944,Unfurnished,Ready,Engel & Völkers,2024-04-18,2025-02-20,Mid-Tier,4 Bedrooms
PF100135,2 BR Townhouse in Al Nahda,Townhouse,For Rent,Residential,33641,Yearly,2,2,810,41.53,Al Nahda,Dubai,Affordable,25.288939,55.370884,Unfurnished,Ready,Betterhomes,2024-09-24,2025-02-20,Affordable,2 Bedrooms
PF100136,2 BR Apartment in International City,Apartment,For Rent,Residential,35211,Yearly,2,2,669,52.63,International City,Dubai,Affordable,25.1656,55.414041,Semi-Furnished,Ready,Engel & Völkers,2024-09-24,2025-02-20,Affordable,2 Bedrooms
PF100137,1 BR Townhouse in DAMAC Hills,Townhouse,For Rent,Residential,62754,Yearly,1,1,4246,14.78,DAMAC Hills,Dubai,Mid-Tier,25.027327,55.249954,Furnished,Off-Plan,Allsopp & Allsopp,2024-09-18,2025-02-20,Mid-Tier,1 Bedroom
PF100138,1 BR Apartment in Dubai Sports City,Apartment,For Rent,Residential,28865,Yearly,1,1,2093,13.79,Dubai Sports City,Dubai,Affordable,25.05282,55.225481,Furnished,Off-Plan,Fäm Properties,2024-12-09,2025-02-20,Affordable,1 Bedroom
PF100139,3 BR Penthouse in Jumeirah Village Circle,Penthouse,For Rent,Residential,68610,Yearly,3,3,514,133.48,Jumeirah Village Circle,Dubai,Affordable,25.064885,55.210946,Unfurnished,Ready,CBRE UAE,2024-03-05,2025-02-20,Mid-Tier,3 Bedrooms
PF100140,2 BR Townhouse in Deira,Townhouse,For Rent,Residential,39343,Yearly,2,2,1581,24.88,Deira,Dubai,Affordable,25.266367,55.311155,Unfurnished,Off-Plan,Coldwell Banker,2024-04-13,2025-02-20,Affordable,2 Bedrooms
PF100141,4 BR Apartment in Business Bay,Apartment,For Rent,Residential,112932,Yearly,4,4,1842,61.31,Business Bay,Dubai,Mid-Tier,25.18807,55.26157,Semi-Furnished,Ready,Coldwell Banker,2024-04-06,2025-02-20,Premium,4 Bedrooms
PF100142,2 BR Apartment in Dubai Sports City,Apartment,For Rent,Residential,43886,Yearly,2,2,1565,28.04,Dubai Sports City,Dubai,Affordable,25.036605,55.219284,Furnished,Ready,Espace Real Estate,2024-10-06,2025-02-20,Affordable,2 Bedrooms
PF100143,Studio Apartment in Business Bay,Studio,For Rent,Residential,37192,Yearly,0,1,714,52.09,Business Bay,Dubai,Mid-Tier,25.185354,55.265795,Furnished,Off-Plan,Savills UAE,2024-10-27,2025-02-20,Affordable,Studio
PF100144,4 BR Penthouse in Business Bay,Penthouse,For Rent,Residential,97663,Yearly,4,4,964,101.31,Business Bay,Dubai,Mid-Tier,25.178817,55.268857,Furnished,Off-Plan,Betterhomes,2024-12-16,2025-02-20,Mid-Tier,4 Bedrooms
PF100145,2 BR Villa in Bur Dubai,Villa,For Rent,Residential,48699,Yearly,2,2,2684,18.14,Bur Dubai,Dubai,Affordable,25.258248,55.302876,Semi-Furnished,Ready,Driven Properties,2024-05-30,2025-02-20,Affordable,2 Bedrooms
PF100146,1 BR Townhouse in Arjan,Townhouse,For Rent,Residential,39811,Yearly,1,1,4132,9.63,Arjan,Dubai,Affordable,25.050189,55.216562,Semi-Furnished,Off-Plan,Espace Real Estate,2024-10-15,2025-02-20,Affordable,1 Bedroom
PF100147,4 BR Villa in Jumeirah Lake Towers,Villa,For Rent,Residential,92076,Yearly,4,4,777,118.5,Jumeirah Lake Towers,Dubai,Mid-Tier,25.071424,55.147582,Furnished,Ready,Driven Properties,2024-11-10,2025-02-20,Mid-Tier,4 Bedrooms
PF100148,1 BR Townhouse in Dubai Marina,Townhouse,For Rent,Residential,93725,Yearly,1,1,4555,20.58,Dubai Marina,Dubai,Luxury,25.073447,55.139049,Unfurnished,Off-Plan,Betterhomes,2024-05-24,2025-02-20,Mid-Tier,1 Bedroom
PF100149,Studio Apartment in Bur Dubai,Studio,For Rent,Residential,25491,Yearly,0,1,2356,10.82,Bur Dubai,Dubai,Affordable,25.250679,55.294923,Unfurnished,Ready,Betterhomes,2024-03-13,2025-02-20,Affordable,Studio
PF100150,Studio Apartment in Dubai Silicon Oasis,Studio,For Rent,Residential,21986,Yearly,0,1,898,24.48,Dubai Silicon Oasis,Dubai,Affordable,25.113652,55.377138,Semi-Furnished,Ready,Engel & Völkers,2024-09-29,2025-02-20,Affordable,Studio
PF100151,4 BR Apartment in Al Nahda,Apartment,For Rent,Residential,30894,Yearly,4,4,377,81.95,Al Nahda,Dubai,Affordable,25.287018,55.386099,Semi-Furnished,Off-Plan,Allsopp & Allsopp,2024-11-07,2025-02-20,Affordable,4 Bedrooms
PF100152,1 BR Townhouse in Jumeirah Village Circle,Townhouse,For Rent,Residential,30089,Yearly,1,1,741,40.61,Jumeirah Village Circle,Dubai,Affordable,25.053869,55.210779,Unfurnished,Ready,Allsopp & Allsopp,2024-12-15,2025-02-20,Affordable,1 Bedroom
PF100153,4 BR Apartment in Arjan,Apartment,For Rent,Residential,92662,Yearly,4,4,1290,71.83,Arjan,Dubai,Affordable,25.049171,55.206825,Semi-Furnished,Off-Plan,Provident Estate,2024-02-01,2025-02-20,Mid-Tier,4 Bedrooms
PF100154,3 BR Villa in DAMAC Hills,Villa,For Rent,Residential,112248,Yearly,3,3,1051,106.8,DAMAC Hills,Dubai,Mid-Tier,25.02777,55.238012,Semi-Furnished,Ready,Coldwell Banker,2024-10-27,2025-02-20,Premium,3 Bedrooms
PF100155,Studio Apartment in Arjan,Studio,For Rent,Residential,26677,Yearly,0,1,1829,14.59,Arjan,Dubai,Affordable,25.039873,55.201325,Unfurnished,Ready,Allsopp & Allsopp,2024-03-06,2025-02-20,Affordable,Studio
PF100156,2 BR Villa in DAMAC Hills,Villa,For Rent,Residential,47614,Yearly,2,2,3236,14.71,DAMAC Hills,Dubai,Mid-Tier,25.02822,55.24707,Semi-Furnished,Off-Plan,Engel & Völkers,2024-04-30,2025-02-20,Affordable,2 Bedrooms
PF100157,1 BR Apartment in Dubai Hills Estate,Apartment,For Rent,Residential,83991,Yearly,1,1,451,186.23,Dubai Hills Estate,Dubai,Mid-Tier,25.109769,55.228876,Furnished,Off-Plan,Driven Properties,2024-05-13,2025-02-20,Mid-Tier,1 Bedroom
PF100158,3 BR Penthouse in Dubai Sports City,Penthouse,For Rent,Residential,49921,Yearly,3,3,449,111.18,Dubai Sports City,Dubai,Affordable,25.048066,55.218822,Furnished,Off-Plan,Driven Properties,2024-08-01,2025-02-20,Affordable,3 Bedrooms
PF100159,2 BR Penthouse in Jumeirah Beach Residence,Penthouse,For Rent,Residential,123687,Yearly,2,2,2101,58.87,Jumeirah Beach Residence,Dubai,Luxury,25.084093,55.130633,Unfurnished,Off-Plan,Fäm Properties,2024-05-06,2025-02-20,Premium,2 Bedrooms
PF100160,2 BR Apartment in Dubai Sports City,Apartment,For Rent,Residential,47538,Yearly,2,2,623,76.3,Dubai Sports City,Dubai,Affordable,25.041612,55.234902,Semi-Furnished,Off-Plan,Fäm Properties,2024-05-03,2025-02-20,Affordable,2 Bedrooms
PF100161,Studio Apartment in Jumeirah Beach Residence,Studio,For Rent,Residential,63990,Yearly,0,1,1510,42.38,Jumeirah Beach Residence,Dubai,Luxury,25.07233,55.134952,Furnished,Off-Plan,Fäm Properties,2024-09-06,2025-02-20,Mid-Tier,Studio
PF100162,Studio Apartment in Al Nahda,Studio,For Rent,Residential,20908,Yearly,0,1,1744,11.99,Al Nahda,Dubai,Affordable,25.294197,55.378099,Furnished,Ready,Coldwell Banker,2024-12-24,2025-02-20,Affordable,Studio
PF100163,4 BR Villa in International City,Villa,For Rent,Residential,28530,Yearly,4,4,1519,18.78,International City,Dubai,Affordable,25.170273,55.417462,Furnished,Ready,Allsopp & Allsopp,2024-09-12,2025-02-20,Affordable,4 Bedrooms
PF100164,2 BR Townhouse in Al Barsha,Townhouse,For Rent,Residential,56781,Yearly,2,2,4996,11.37,Al Barsha,Dubai,Mid-Tier,25.099148,55.192469,Unfurnished,Off-Plan,Engel & Völkers,2024-09-18,2025-02-20,Mid-Tier,2 Bedrooms
PF100165,4 BR Villa in Dubai Marina,Villa,For Rent,Residential,216595,Yearly,4,4,3356,64.54,Dubai Marina,Dubai,Luxury,25.078461,55.143291,Furnished,Ready,Espace Real Estate,2024-06-07,2025-02-20,Luxury,4 Bedrooms
PF100166,4 BR Penthouse in Arjan,Penthouse,For Rent,Residential,53575,Yearly,4,4,1372,39.05,Arjan,Dubai,Affordable,25.050299,55.215081,Semi-Furnished,Off-Plan,Engel & Völkers,2024-05-20,2025-02-20,Mid-Tier,4 Bedrooms
PF100167,Studio Apartment in Jumeirah Lake Towers,Studio,For Rent,Residential,26947,Yearly,0,1,603,44.69,Jumeirah Lake Towers,Dubai,Mid-Tier,25.067641,55.148074,Furnished,Off-Plan,Fäm Properties,2024-09-15,2025-02-20,Affordable,Studio
PF100168,4 BR Townhouse in Dubai Marina,Townhouse,For Rent,Residential,171472,Yearly,4,4,1640,104.56,Dubai Marina,Dubai,Luxury,25.084736,55.148846,Furnished,Off-Plan,CBRE UAE,2024-12-23,2025-02-20,Premium,4 Bedrooms
PF100169,Studio Apartment in Al Barsha,Studio,For Rent,Residential,25585,Yearly,0,1,868,29.48,Al Barsha,Dubai,Mid-Tier,25.103235,55.19928,Semi-Furnished,Off-Plan,Engel & Völkers,2024-08-03,2025-02-20,Affordable,Studio
PF100170,1 BR Apartment in Dubai Production City,Apartment,For Rent,Residential,18307,Yearly,1,1,1566,11.69,Dubai Production City,Dubai,Affordable,25.032063,55.200339,Semi-Furnished,Off-Plan,Coldwell Banker,2024-10-03,2025-02-20,Affordable,1 Bedroom
PF100171,Studio Apartment in DAMAC Hills,Studio,For Rent,Residential,29106,Yearly,0,1,1598,18.21,DAMAC Hills,Dubai,Mid-Tier,25.030147,55.239799,Semi-Furnished,Off-Plan,Espace Real Estate,2025-01-14,2025-02-20,Affordable,Studio
PF100172,4 BR Villa in Dubai Production City,Villa,For Rent,Residential,73737,Yearly,4,4,1407,52.41,Dubai Production City,Dubai,Affordable,25.032752,55.204214,Furnished,Ready,Driven Properties,2024-02-29,2025-02-20,Mid-Tier,4 Bedrooms
PF100173,1 BR Townhouse in Dubai Hills Estate,Townhouse,For Rent,Residential,62686,Yearly,1,1,3184,19.69,Dubai Hills Estate,Dubai,Mid-Tier,25.12285,55.238378,Furnished,Off-Plan,Provident Estate,2024-06-25,2025-02-20,Mid-Tier,1 Bedroom
PF100174,2 BR Villa in Dubai Production City,Villa,For Rent,Residential,40032,Yearly,2,2,2830,14.15,Dubai Production City,Dubai,Affordable,25.036389,55.187869,Furnished,Ready,Espace Real Estate,2024-12-25,2025-02-20,Affordable,2 Bedrooms
PF100175,4 BR Townhouse in Arabian Ranches,Townhouse,For Rent,Residential,416623,Yearly,4,4,687,606.44,Arabian Ranches,Dubai,Luxury,25.059805,55.259967,Semi-Furnished,Off-Plan,Provident Estate,2024-02-24,2025-02-20,Luxury,4 Bedrooms
PF100176,3 BR Apartment in DAMAC Hills,Apartment,For Rent,Residential,99166,Yearly,3,3,1486,66.73,DAMAC Hills,Dubai,Mid-Tier,25.030138,55.236842,Semi-Furnished,Off-Plan,Driven Properties,2024-06-05,2025-02-20,Mid-Tier,3 Bedrooms
PF100177,Studio Apartment in Al Nahda,Studio,For Rent,Residential,20282,Yearly,0,1,545,37.21,Al Nahda,Dubai,Affordable,25.285062,55.377712,Furnished,Off-Plan,Savills UAE,2024-09-25,2025-02-20,Affordable,Studio
PF100178,2 BR Townhouse in Business Bay,Townhouse,For Rent,Residential,92804,Yearly,2,2,3179,29.19,Business Bay,Dubai,Mid-Tier,25.194707,55.257615,Semi-Furnished,Ready,Fäm Properties,2024-08-08,2025-02-20,Mid-Tier,2 Bedrooms
PF100179,3 BR Apartment in Al Barsha,Apartment,For Rent,Residential,66634,Yearly,3,3,2141,31.12,Al Barsha,Dubai,Mid-Tier,25.103458,55.191336,Unfurnished,Off-Plan,Provident Estate,2024-06-28,2025-02-20,Mid-Tier,3 Bedrooms
PF100180,2 BR Townhouse in Dubai Hills Estate,Townhouse,For Rent,Residential,76392,Yearly,2,2,1655,46.16,Dubai Hills Estate,Dubai,Mid-Tier,25.113865,55.238294,Unfurnished,Off-Plan,Betterhomes,2024-10-13,2025-02-20,Mid-Tier,2 Bedrooms
PF100181,3 BR Penthouse in Dubai Marina,Penthouse,For Rent,Residential,127862,Yearly,3,3,1181,108.27,Dubai Marina,Dubai,Luxury,25.082167,55.131273,Unfurnished,Off-Plan,Driven Properties,2024-06-24,2025-02-20,Premium,3 Bedrooms
PF100182,Studio Apartment in Dubai Production City,Studio,For Rent,Residential,25880,Yearly,0,1,740,34.97,Dubai Production City,Dubai,Affordable,25.032719,55.203649,Unfurnished,Off-Plan,Betterhomes,2024-08-06,2025-02-20,Affordable,Studio
PF100183,Studio Apartment in Deira,Studio,For Rent,Residential,19343,Yearly,0,1,1097,17.63,Deira,Dubai,Affordable,25.26695,55.305272,Semi-Furnished,Off-Plan,CBRE UAE,2024-08-16,2025-02-20,Affordable,Studio
PF100184,4 BR Apartment in Mirdif,Apartment,For Rent,Residential,65148,Yearly,4,4,696,93.6,Mirdif,Dubai,Mid-Tier,25.218978,55.424098,Semi-Furnished,Off-Plan,Espace Real Estate,2024-07-23,2025-02-20,Mid-Tier,4 Bedrooms
PF100185,4 BR Penthouse in Jumeirah Lake Towers,Penthouse,For Rent,Residential,116659,Yearly,4,4,464,251.42,Jumeirah Lake Towers,Dubai,Mid-Tier,25.059506,55.132841,Unfurnished,Off-Plan,Espace Real Estate,2024-07-20,2025-02-20,Premium,4 Bedrooms
PF100186,4 BR Villa in Arabian Ranches,Villa,For Rent,Residential,323961,Yearly,4,4,2959,109.48,Arabian Ranches,Dubai,Luxury,25.04655,55.279212,Semi-Furnished,Off-Plan,CBRE UAE,2024-07-03,2025-02-20,Luxury,4 Bedrooms
PF100187,4 BR Penthouse in Dubai Sports City,Penthouse,For Rent,Residential,66970,Yearly,4,4,2245,29.83,Dubai Sports City,Dubai,Affordable,25.049315,55.222367,Furnished,Off-Plan,Savills UAE,2025-01-10,2025-02-20,Mid-Tier,4 Bedrooms
PF100188,Studio Apartment in Jumeirah Village Circle,Studio,For Rent,Residential,37059,Yearly,0,1,2243,16.52,Jumeirah Village Circle,Dubai,Affordable,25.054411,55.211112,Semi-Furnished,Ready,Betterhomes,2024-11-23,2025-02-20,Affordable,Studio
PF100189,3 BR Villa in DAMAC Hills,Villa,For Rent,Residential,101227,Yearly,3,3,3464,29.22,DAMAC Hills,Dubai,Mid-Tier,25.020256,55.244415,Semi-Furnished,Ready,Provident Estate,2024-02-17,2025-02-20,Premium,3 Bedrooms
PF100190,3 BR Townhouse in Palm Jumeirah,Townhouse,For Rent,Residential,347736,Yearly,3,3,1590,218.7,Palm Jumeirah,Dubai,Luxury,25.110659,55.133078,Semi-Furnished,Off-Plan,Betterhomes,2024-10-14,2025-02-20,Luxury,3 Bedrooms
PF100191,4 BR Villa in Business Bay,Villa,For Rent,Residential,137637,Yearly,4,4,3012,45.7,Business Bay,Dubai,Mid-Tier,25.195162,55.264567,Unfurnished,Ready,Engel & Völkers,2024-08-11,2025-02-20,Premium,4 Bedrooms
PF100192,2 BR Townhouse in Dubai Production City,Townhouse,For Rent,Residential,41531,Yearly,2,2,2515,16.51,Dubai Production City,Dubai,Affordable,25.036302,55.189845,Unfurnished,Off-Plan,Provident Estate,2024-06-06,2025-02-20,Affordable,2 Bedrooms
PF100193,2 BR Villa in Jumeirah Village Circle,Villa,For Rent,Residential,60342,Yearly,2,2,2947,20.48,Jumeirah Village Circle,Dubai,Affordable,25.058696,55.20921,Unfurnished,Ready,Savills UAE,2024-06-20,2025-02-20,Mid-Tier,2 Bedrooms
PF100194,3 BR Penthouse in Dubai Production City,Penthouse,For Rent,Residential,60979,Yearly,3,3,1713,35.6,Dubai Production City,Dubai,Affordable,25.043192,55.202092,Furnished,Off-Plan,Allsopp & Allsopp,2024-06-28,2025-02-20,Mid-Tier,3 Bedrooms
PF100195,3 BR Townhouse in International City,Townhouse,For Rent,Residential,50985,Yearly,3,3,4274,11.93,International City,Dubai,Affordable,25.15758,55.420459,Semi-Furnished,Off-Plan,Espace Real Estate,2024-06-18,2025-02-20,Mid-Tier,3 Bedrooms
PF100196,4 BR Villa in Jumeirah Beach Residence,Villa,For Rent,Residential,175168,Yearly,4,4,765,228.98,Jumeirah Beach Residence,Dubai,Luxury,25.079597,55.133521,Furnished,Ready,Allsopp & Allsopp,2024-12-23,2025-02-20,Premium,4 Bedrooms
PF100197,2 BR Penthouse in Bur Dubai,Penthouse,For Rent,Residential,28430,Yearly,2,2,863,32.94,Bur Dubai,Dubai,Affordable,25.243304,55.298207,Unfurnished,Off-Plan,Engel & Völkers,2024-04-21,2025-02-20,Affordable,2 Bedrooms
PF100198,2 BR Townhouse in Jumeirah Lake Towers,Townhouse,For Rent,Residential,57333,Yearly,2,2,834,68.74,Jumeirah Lake Towers,Dubai,Mid-Tier,25.076759,55.131889,Furnished,Ready,Espace Real Estate,2024-11-20,2025-02-20,Mid-Tier,2 Bedrooms
PF100199,1 BR Apartment in Bur Dubai,Apartment,For Rent,Residential,35711,Yearly,1,1,2329,15.33,Bur Dubai,Dubai,Affordable,25.246926,55.30218,Furnished,Ready,Driven Properties,2024-06-28,2025-02-20,Affordable,1 Bedroom
PF100200,4 BR Apartment in DAMAC Hills,Apartment,For Rent,Residential,107935,Yearly,4,4,1465,73.68,DAMAC Hills,Dubai,Mid-Tier,25.026387,55.243626,Unfurnished,Ready,CBRE UAE,2024-10-26,2025-02-20,Premium,4 Bedrooms
PF100201,2 BR Villa in Al Nahda,Villa,For Rent,Residential,19521,Yearly,2,2,3058,6.38,Al Nahda,Dubai,Affordable,25.28515,55.378578,Semi-Furnished,Ready,Betterhomes,2024-06-11,2025-02-20,Affordable,2 Bedrooms
PF100202,2 BR Villa in Dubai Silicon Oasis,Villa,For Rent,Residential,30150,Yearly,2,2,3671,8.21,Dubai Silicon Oasis,Dubai,Affordable,25.12744,55.381706,Unfurnished,Ready,Espace Real Estate,2024-03-16,2025-02-20,Affordable,2 Bedrooms
PF100203,3 BR Townhouse in Business Bay,Townhouse,For Rent,Residential,139596,Yearly,3,3,2382,58.6,Business Bay,Dubai,Mid-Tier,25.175337,55.262671,Unfurnished,Off-Plan,Driven Properties,2024-09-16,2025-02-20,Premium,3 Bedrooms
PF100204,4 BR Apartment in DAMAC Hills,Apartment,For Rent,Residential,100711,Yearly,4,4,1772,56.83,DAMAC Hills,Dubai,Mid-Tier,25.031155,55.232042,Unfurnished,Off-Plan,Espace Real Estate,2024-04-01,2025-02-20,Premium,4 Bedrooms
PF100205,4 BR Townhouse in Deira,Townhouse,For Rent,Residential,63928,Yearly,4,4,1311,48.76,Deira,Dubai,Affordable,25.272474,55.318313,Semi-Furnished,Ready,Provident Estate,2024-08-07,2025-02-20,Mid-Tier,4 Bedrooms
PF100206,3 BR Villa in Business Bay,Villa,For Rent,Residential,101780,Yearly,3,3,3410,29.85,Business Bay,Dubai,Mid-Tier,25.183517,55.265985,Semi-Furnished,Ready,Provident Estate,2024-09-29,2025-02-20,Premium,3 Bedrooms
PF100207,Studio Apartment in Arabian Ranches,Studio,For Rent,Residential,133879,Yearly,0,1,2129,62.88,Arabian Ranches,Dubai,Luxury,25.053863,55.266636,Furnished,Ready,CBRE UAE,2024-11-15,2025-02-20,Premium,Studio
PF100208,1 BR Villa in Dubai Sports City,Villa,For Rent,Residential,25048,Yearly,1,1,3037,8.25,Dubai Sports City,Dubai,Affordable,25.05009,55.223837,Furnished,Off-Plan,Allsopp & Allsopp,2025-01-14,2025-02-20,Affordable,1 Bedroom
PF100209,3 BR Apartment in Dubai Sports City,Apartment,For Rent,Residential,65659,Yearly,3,3,840,78.17,Dubai Sports City,Dubai,Affordable,25.043265,55.224136,Semi-Furnished,Off-Plan,Driven Properties,2024-03-01,2025-02-20,Mid-Tier,3 Bedrooms
PF100210,3 BR Townhouse in Palm Jumeirah,Townhouse,For Rent,Residential,216948,Yearly,3,3,2135,101.61,Palm Jumeirah,Dubai,Luxury,25.113966,55.129906,Semi-Furnished,Ready,CBRE UAE,2024-07-26,2025-02-20,Luxury,3 Bedrooms
PF100211,Studio Apartment in Downtown Dubai,Studio,For Rent,Residential,75937,Yearly,0,1,429,177.01,Downtown Dubai,Dubai,Luxury,25.192942,55.268,Semi-Furnished,Off-Plan,Fäm Properties,2024-04-10,2025-02-20,Mid-Tier,Studio
PF100212,3 BR Penthouse in Deira,Penthouse,For Rent,Residential,38770,Yearly,3,3,628,61.74,Deira,Dubai,Affordable,25.273355,55.312736,Furnished,Off-Plan,Allsopp & Allsopp,2024-11-03,2025-02-20,Affordable,3 Bedrooms
PF100213,4 BR Penthouse in Dubai Hills Estate,Penthouse,For Rent,Residential,193974,Yearly,4,4,821,236.27,Dubai Hills Estate,Dubai,Mid-Tier,25.118457,55.232454,Furnished,Off-Plan,Engel & Völkers,2024-02-02,2025-02-20,Premium,4 Bedrooms
PF100214,3 BR Penthouse in Dubai Production City,Penthouse,For Rent,Residential,61174,Yearly,3,3,1240,49.33,Dubai Production City,Dubai,Affordable,25.02905,55.192923,Furnished,Ready,Betterhomes,2024-06-21,2025-02-20,Mid-Tier,3 Bedrooms
PF100215,4 BR Apartment in Bur Dubai,Apartment,For Rent,Residential,61158,Yearly,4,4,1144,53.46,Bur Dubai,Dubai,Affordable,25.244546,55.299079,Semi-Furnished,Ready,Provident Estate,2024-09-16,2025-02-20,Mid-Tier,4 Bedrooms
PF100216,3 BR Penthouse in Downtown Dubai,Penthouse,For Rent,Residential,144858,Yearly,3,3,1189,121.83,Downtown Dubai,Dubai,Luxury,25.202288,55.279921,Semi-Furnished,Off-Plan,Provident Estate,2024-04-12,2025-02-20,Premium,3 Bedrooms
PF100217,2 BR Townhouse in DAMAC Hills,Townhouse,For Rent,Residential,58972,Yearly,2,2,2822,20.9,DAMAC Hills,Dubai,Mid-Tier,25.034825,55.250514,Furnished,Off-Plan,Driven Properties,2024-10-24,2025-02-20,Mid-Tier,2 Bedrooms
PF100218,Studio Apartment in Mirdif,Studio,For Rent,Residential,35742,Yearly,0,1,1017,35.14,Mirdif,Dubai,Mid-Tier,25.22362,55.416744,Furnished,Off-Plan,Coldwell Banker,2024-10-11,2025-02-20,Affordable,Studio
PF100219,2 BR Penthouse in Dubai Sports City,Penthouse,For Rent,Residential,46579,Yearly,2,2,911,51.13,Dubai Sports City,Dubai,Affordable,25.038998,55.218678,Unfurnished,Ready,Provident Estate,2024-11-02,2025-02-20,Affordable,2 Bedrooms
PF100220,1 BR Penthouse in Jumeirah Village Circle,Penthouse,For Rent,Residential,27143,Yearly,1,1,1990,13.64,Jumeirah Village Circle,Dubai,Affordable,25.068456,55.209146,Unfurnished,Ready,Driven Properties,2024-04-09,2025-02-20,Affordable,1 Bedroom
PF100221,2 BR Apartment in Jumeirah Lake Towers,Apartment,For Rent,Residential,67029,Yearly,2,2,1819,36.85,Jumeirah Lake Towers,Dubai,Mid-Tier,25.060449,55.144592,Furnished,Off-Plan,Coldwell Banker,2024-05-08,2025-02-20,Mid-Tier,2 Bedrooms
PF100222,4 BR Apartment in Arabian Ranches,Apartment,For Rent,Residential,223618,Yearly,4,4,1070,208.99,Arabian Ranches,Dubai,Luxury,25.059393,55.271152,Semi-Furnished,Ready,Engel & Völkers,2025-01-09,2025-02-20,Luxury,4 Bedrooms
PF100223,2 BR Townhouse in Jumeirah Lake Towers,Townhouse,For Rent,Residential,41403,Yearly,2,2,2085,19.86,Jumeirah Lake Towers,Dubai,Mid-Tier,25.077343,55.149342,Semi-Furnished,Off-Plan,Provident Estate,2024-04-01,2025-02-20,Affordable,2 Bedrooms
PF100224,1 BR Penthouse in Arabian Ranches,Penthouse,For Rent,Residential,134917,Yearly,1,1,1617,83.44,Arabian Ranches,Dubai,Luxury,25.05881,55.267013,Semi-Furnished,Off-Plan,Driven Properties,2024-10-31,2025-02-20,Premium,1 Bedroom
PF100225,2 BR Penthouse in Mirdif,Penthouse,For Rent,Residential,58986,Yearly,2,2,703,83.91,Mirdif,Dubai,Mid-Tier,25.227156,55.422648,Furnished,Off-Plan,Fäm Properties,2024-07-13,2025-02-20,Mid-Tier,2 Bedrooms
PF100226,Studio Apartment in Bur Dubai,Studio,For Rent,Residential,19750,Yearly,0,1,897,22.02,Bur Dubai,Dubai,Affordable,25.243524,55.298266,Semi-Furnished,Off-Plan,Driven Properties,2024-11-26,2025-02-20,Affordable,Studio
PF100227,1 BR Townhouse in Business Bay,Townhouse,For Rent,Residential,49051,Yearly,1,1,3461,14.17,Business Bay,Dubai,Mid-Tier,25.186596,55.259915,Semi-Furnished,Off-Plan,Driven Properties,2024-11-08,2025-02-20,Affordable,1 Bedroom
PF100228,3 BR Penthouse in Arjan,Penthouse,For Rent,Residential,46830,Yearly,3,3,1742,26.88,Arjan,Dubai,Affordable,25.038185,55.215406,Furnished,Ready,CBRE UAE,2024-10-08,2025-02-20,Affordable,3 Bedrooms
PF100229,Studio Apartment in Downtown Dubai,Studio,For Rent,Residential,88792,Yearly,0,1,498,178.3,Downtown Dubai,Dubai,Luxury,25.202487,55.272648,Furnished,Ready,Espace Real Estate,2024-12-19,2025-02-20,Mid-Tier,Studio
PF100230,1 BR Penthouse in Palm Jumeirah,Penthouse,For Rent,Residential,194482,Yearly,1,1,547,355.54,Palm Jumeirah,Dubai,Luxury,25.114757,55.142335,Unfurnished,Off-Plan,Betterhomes,2024-12-12,2025-02-20,Premium,1 Bedroom
PF100231,4 BR Penthouse in Palm Jumeirah,Penthouse,For Rent,Residential,274659,Yearly,4,4,368,746.36,Palm Jumeirah,Dubai,Luxury,25.112988,55.134495,Furnished,Off-Plan,Espace Real Estate,2024-06-26,2025-02-20,Luxury,4 Bedrooms
PF100232,Studio Apartment in Jumeirah Beach Residence,Studio,For Rent,Residential,76866,Yearly,0,1,909,84.56,Jumeirah Beach Residence,Dubai,Luxury,25.071019,55.135296,Unfurnished,Off-Plan,Coldwell Banker,2024-06-09,2025-02-20,Mid-Tier,Studio
PF100233,2 BR Penthouse in Dubai Marina,Penthouse,For Rent,Residential,121644,Yearly,2,2,1296,93.86,Dubai Marina,Dubai,Luxury,25.090305,55.134817,Furnished,Ready,Allsopp & Allsopp,2025-01-16,2025-02-20,Premium,2 Bedrooms
PF100234,3 BR Penthouse in Deira,Penthouse,For Rent,Residential,45732,Yearly,3,3,2249,20.33,Deira,Dubai,Affordable,25.260822,55.299689,Furnished,Off-Plan,Coldwell Banker,2024-04-28,2025-02-20,Affordable,3 Bedrooms
PF100235,4 BR Apartment in Dubai Silicon Oasis,Apartment,For Rent,Residential,37182,Yearly,4,4,1241,29.96,Dubai Silicon Oasis,Dubai,Affordable,25.115128,55.388762,Unfurnished,Off-Plan,Betterhomes,2024-11-17,2025-02-20,Affordable,4 Bedrooms
PF100236,2 BR Apartment in Dubai Marina,Apartment,For Rent,Residential,88657,Yearly,2,2,1588,55.83,Dubai Marina,Dubai,Luxury,25.070813,55.134443,Semi-Furnished,Off-Plan,Allsopp & Allsopp,2024-04-14,2025-02-20,Mid-Tier,2 Bedrooms
PF100237,1 BR Villa in Jumeirah Village Circle,Villa,For Rent,Residential,50496,Yearly,1,1,3537,14.28,Jumeirah Village Circle,Dubai,Affordable,25.062641,55.208811,Semi-Furnished,Ready,Allsopp & Allsopp,2024-08-15,2025-02-20,Mid-Tier,1 Bedroom
PF100238,2 BR Apartment in Dubai Sports City,Apartment,For Rent,Residential,28260,Yearly,2,2,2090,13.52,Dubai Sports City,Dubai,Affordable,25.037643,55.21652,Semi-Furnished,Off-Plan,Fäm Properties,2024-12-06,2025-02-20,Affordable,2 Bedrooms
PF100239,2 BR Penthouse in Palm Jumeirah,Penthouse,For Rent,Residential,277747,Yearly,2,2,1234,225.08,Palm Jumeirah,Dubai,Luxury,25.109516,55.147823,Furnished,Off-Plan,Allsopp & Allsopp,2024-09-09,2025-02-20,Luxury,2 Bedrooms
PF100240,2 BR Villa in Arabian Ranches,Villa,For Rent,Residential,134342,Yearly,2,2,1022,131.45,Arabian Ranches,Dubai,Luxury,25.048659,55.267,Furnished,Off-Plan,Fäm Properties,2024-12-21,2025-02-20,Premium,2 Bedrooms
PF100241,Studio Apartment in International City,Studio,For Rent,Residential,10499,Yearly,0,1,321,32.71,International City,Dubai,Affordable,25.172159,55.412795,Furnished,Ready,Allsopp & Allsopp,2024-06-18,2025-02-20,Affordable,Studio
PF100242,3 BR Penthouse in Dubai Hills Estate,Penthouse,For Rent,Residential,152599,Yearly,3,3,1971,77.42,Dubai Hills Estate,Dubai,Mid-Tier,25.105966,55.229792,Furnished,Off-Plan,Coldwell Banker,2024-11-10,2025-02-20,Premium,3 Bedrooms
PF100243,2 BR Penthouse in Palm Jumeirah,Penthouse,For Rent,Residential,253493,Yearly,2,2,646,392.4,Palm Jumeirah,Dubai,Luxury,25.116897,55.140191,Semi-Furnished,Ready,Coldwell Banker,2024-06-04,2025-02-20,Luxury,2 Bedrooms
PF100244,1 BR Townhouse in Dubai Hills Estate,Townhouse,For Rent,Residential,69628,Yearly,1,1,2548,27.33,Dubai Hills Estate,Dubai,Mid-Tier,25.113762,55.229265,Unfurnished,Off-Plan,Driven Properties,2024-09-10,2025-02-20,Mid-Tier,1 Bedroom
PF100245,Studio Apartment in Arjan,Studio,For Rent,Residential,25833,Yearly,0,1,1330,19.42,Arjan,Dubai,Affordable,25.053684,55.215418,Semi-Furnished,Ready,Engel & Völkers,2024-10-11,2025-02-20,Affordable,Studio
PF100246,1 BR Townhouse in Jumeirah Beach Residence,Townhouse,For Rent,Residential,60120,Yearly,1,1,3591,16.74,Jumeirah Beach Residence,Dubai,Luxury,25.072844,55.135304,Unfurnished,Off-Plan,Coldwell Banker,2024-07-18,2025-02-20,Mid-Tier,1 Bedroom
PF100247,1 BR Townhouse in Arabian Ranches,Townhouse,For Rent,Residential,149842,Yearly,1,1,1995,75.11,Arabian Ranches,Dubai,Luxury,25.05288,55.262953,Unfurnished,Off-Plan,Engel & Völkers,2024-08-22,2025-02-20,Premium,1 Bedroom
PF100248,1 BR Townhouse in DAMAC Hills,Townhouse,For Rent,Residential,52251,Yearly,1,1,2646,19.75,DAMAC Hills,Dubai,Mid-Tier,25.03363,55.238659,Semi-Furnished,Ready,Savills UAE,2024-03-30,2025-02-20,Mid-Tier,1 Bedroom
PF100249,1 BR Apartment in Dubai Production City,Apartment,For Rent,Residential,33480,Yearly,1,1,2190,15.29,Dubai Production City,Dubai,Affordable,25.042959,55.190193,Semi-Furnished,Ready,Coldwell Banker,2024-06-29,2025-02-20,Affordable,1 Bedroom
PF100250,1 BR Townhouse in Arjan,Townhouse,For Rent,Residential,30702,Yearly,1,1,2419,12.69,Arjan,Dubai,Affordable,25.047973,55.215305,Furnished,Off-Plan,Savills UAE,2024-08-12,2025-02-20,Affordable,1 Bedroom
PF100251,4 BR Penthouse in Arjan,Penthouse,For Rent,Residential,91801,Yearly,4,4,2013,45.6,Arjan,Dubai,Affordable,25.045673,55.216814,Semi-Furnished,Ready,Allsopp & Allsopp,2024-08-03,2025-02-20,Mid-Tier,4 Bedrooms
PF100252,2 BR Villa in Al Barsha,Villa,For Rent,Residential,72360,Yearly,2,2,712,101.63,Al Barsha,Dubai,Mid-Tier,25.109764,55.202301,Unfurnished,Off-Plan,Coldwell Banker,2024-12-28,2025-02-20,Mid-Tier,2 Bedrooms
PF100253,Studio Apartment in Jumeirah Beach Residence,Studio,For Rent,Residential,48962,Yearly,0,1,1359,36.03,Jumeirah Beach Residence,Dubai,Luxury,25.07064,55.137837,Semi-Furnished,Ready,Engel & Völkers,2024-11-12,2025-02-20,Affordable,Studio
PF100254,3 BR Penthouse in International City,Penthouse,For Rent,Residential,51969,Yearly,3,3,2349,22.12,International City,Dubai,Affordable,25.156315,55.423854,Furnished,Off-Plan,Coldwell Banker,2024-10-05,2025-02-20,Mid-Tier,3 Bedrooms
PF100255,Studio Apartment in Dubai Marina,Studio,For Rent,Residential,46784,Yearly,0,1,1726,27.11,Dubai Marina,Dubai,Luxury,25.076738,55.139407,Semi-Furnished,Off-Plan,Fäm Properties,2024-05-16,2025-02-20,Affordable,Studio
PF100256,Studio Apartment in Arjan,Studio,For Rent,Residential,28357,Yearly,0,1,2153,13.17,Arjan,Dubai,Affordable,25.041178,55.207005,Furnished,Ready,Fäm Properties,2025-01-29,2025-02-20,Affordable,Studio
PF100257,1 BR Villa in Jumeirah Beach Residence,Villa,For Rent,Residential,106842,Yearly,1,1,1779,60.06,Jumeirah Beach Residence,Dubai,Luxury,25.077238,55.12952,Unfurnished,Ready,Coldwell Banker,2024-09-06,2025-02-20,Premium,1 Bedroom
PF100258,1 BR Penthouse in Dubai Hills Estate,Penthouse,For Rent,Residential,78294,Yearly,1,1,419,186.86,Dubai Hills Estate,Dubai,Mid-Tier,25.118648,55.245662,Semi-Furnished,Off-Plan,Coldwell Banker,2024-09-18,2025-02-20,Mid-Tier,1 Bedroom
PF100259,1 BR Villa in Palm Jumeirah,Villa,For Rent,Residential,177076,Yearly,1,1,862,205.42,Palm Jumeirah,Dubai,Luxury,25.113947,55.14499,Furnished,Off-Plan,Fäm Properties,2024-11-01,2025-02-20,Premium,1 Bedroom
PF100260,3 BR Apartment in Jumeirah Lake Towers,Apartment,For Rent,Residential,74631,Yearly,3,3,2304,32.39,Jumeirah Lake Towers,Dubai,Mid-Tier,25.069154,55.142882,Unfurnished,Off-Plan,Savills UAE,2024-12-02,2025-02-20,Mid-Tier,3 Bedrooms
PF100261,2 BR Townhouse in Jumeirah Beach Residence,Townhouse,For Rent,Residential,130510,Yearly,2,2,1763,74.03,Jumeirah Beach Residence,Dubai,Luxury,25.082475,55.13702,Semi-Furnished,Ready,Espace Real Estate,2024-07-02,2025-02-20,Premium,2 Bedrooms
PF100262,Studio Apartment in Dubai Silicon Oasis,Studio,For Rent,Residential,18817,Yearly,0,1,1550,12.14,Dubai Silicon Oasis,Dubai,Affordable,25.113239,55.378866,Semi-Furnished,Off-Plan,Coldwell Banker,2024-04-13,2025-02-20,Affordable,Studio
PF100263,1 BR Penthouse in Arabian Ranches,Penthouse,For Rent,Residential,168627,Yearly,1,1,1060,159.08,Arabian Ranches,Dubai,Luxury,25.053033,55.270148,Furnished,Ready,Engel & Völkers,2024-12-27,2025-02-20,Premium,1 Bedroom
PF100264,1 BR Villa in Jumeirah Village Circle,Villa,For Rent,Residential,38931,Yearly,1,1,4044,9.63,Jumeirah Village Circle,Dubai,Affordable,25.061488,55.21531,Unfurnished,Ready,Provident Estate,2024-02-05,2025-02-20,Affordable,1 Bedroom
PF100265,4 BR Penthouse in Deira,Penthouse,For Rent,Residential,50109,Yearly,4,4,2314,21.65,Deira,Dubai,Affordable,25.268013,55.316298,Furnished,Ready,Savills UAE,2024-10-08,2025-02-20,Mid-Tier,4 Bedrooms
PF100266,1 BR Townhouse in Palm Jumeirah,Townhouse,For Rent,Residential,131999,Yearly,1,1,2601,50.75,Palm Jumeirah,Dubai,Luxury,25.106897,55.134773,Semi-Furnished,Off-Plan,CBRE UAE,2024-09-22,2025-02-20,Premium,1 Bedroom
PF100267,Studio Apartment in Dubai Sports City,Studio,For Rent,Residential,16242,Yearly,0,1,1397,11.63,Dubai Sports City,Dubai,Affordable,25.048502,55.231466,Semi-Furnished,Ready,Engel & Völkers,2024-08-06,2025-02-20,Affordable,Studio
PF100268,1 BR Penthouse in Dubai Production City,Penthouse,For Rent,Residential,19148,Yearly,1,1,1313,14.58,Dubai Production City,Dubai,Affordable,25.030054,55.205986,Unfurnished,Off-Plan,Allsopp & Allsopp,2024-09-18,2025-02-20,Affordable,1 Bedroom
PF100269,Studio Apartment in Al Nahda,Studio,For Rent,Residential,12882,Yearly,0,1,1159,11.11,Al Nahda,Dubai,Affordable,25.298114,55.381158,Semi-Furnished,Off-Plan,Espace Real Estate,2024-07-29,2025-02-20,Affordable,Studio
PF100270,1 BR Villa in Arabian Ranches,Villa,For Rent,Residential,128973,Yearly,1,1,836,154.27,Arabian Ranches,Dubai,Luxury,25.054701,55.270046,Semi-Furnished,Ready,Fäm Properties,2024-12-02,2025-02-20,Premium,1 Bedroom
PF100271,2 BR Townhouse in Jumeirah Village Circle,Townhouse,For Rent,Residential,61840,Yearly,2,2,1130,54.73,Jumeirah Village Circle,Dubai,Affordable,25.051812,55.213002,Furnished,Off-Plan,Espace Real Estate,2024-08-29,2025-02-20,Mid-Tier,2 Bedrooms
PF100272,1 BR Villa in Business Bay,Villa,For Rent,Residential,71134,Yearly,1,1,2988,23.81,Business Bay,Dubai,Mid-Tier,25.19177,55.270229,Unfurnished,Off-Plan,Espace Real Estate,2025-01-12,2025-02-20,Mid-Tier,1 Bedroom
PF100273,2 BR Penthouse in DAMAC Hills,Penthouse,For Rent,Residential,67128,Yearly,2,2,2151,31.21,DAMAC Hills,Dubai,Mid-Tier,25.01881,55.246692,Unfurnished,Off-Plan,Fäm Properties,2024-03-19,2025-02-20,Mid-Tier,2 Bedrooms
PF100274,3 BR Townhouse in Al Nahda,Townhouse,For Rent,Residential,44482,Yearly,3,3,370,120.22,Al Nahda,Dubai,Affordable,25.299278,55.386343,Semi-Furnished,Off-Plan,Fäm Properties,2024-03-19,2025-02-20,Affordable,3 Bedrooms
PF100275,4 BR Penthouse in Dubai Marina,Penthouse,For Rent,Residential,155326,Yearly,4,4,2059,75.44,Dubai Marina,Dubai,Luxury,25.086997,55.140194,Unfurnished,Off-Plan,CBRE UAE,2024-07-15,2025-02-20,Premium,4 Bedrooms
PF100276,1 BR Penthouse in DAMAC Hills,Penthouse,For Rent,Residential,71163,Yearly,1,1,1707,41.69,DAMAC Hills,Dubai,Mid-Tier,25.035183,55.246045,Furnished,Off-Plan,Betterhomes,2024-02-24,2025-02-20,Mid-Tier,1 Bedroom
PF100277,1 BR Penthouse in Jumeirah Beach Residence,Penthouse,For Rent,Residential,101385,Yearly,1,1,302,335.71,Jumeirah Beach Residence,Dubai,Luxury,25.086037,55.131456,Furnished,Off-Plan,Espace Real Estate,2025-01-18,2025-02-20,Premium,1 Bedroom
PF100278,Studio Apartment in Mirdif,Studio,For Rent,Residential,38949,Yearly,0,1,1776,21.93,Mirdif,Dubai,Mid-Tier,25.216108,55.415637,Furnished,Ready,Coldwell Banker,2024-12-29,2025-02-20,Affordable,Studio
PF100279,1 BR Penthouse in Jumeirah Village Circle,Penthouse,For Rent,Residential,28683,Yearly,1,1,689,41.63,Jumeirah Village Circle,Dubai,Affordable,25.049122,55.207536,Semi-Furnished,Ready,CBRE UAE,2024-04-08,2025-02-20,Affordable,1 Bedroom
PF100280,Studio Apartment in Al Nahda,Studio,For Rent,Residential,9132,Yearly,0,1,1707,5.35,Al Nahda,Dubai,Affordable,25.298242,55.389163,Semi-Furnished,Ready,Engel & Völkers,2024-09-04,2025-02-20,Affordable,Studio
PF100281,1 BR Penthouse in Dubai Marina,Penthouse,For Rent,Residential,60695,Yearly,1,1,719,84.42,Dubai Marina,Dubai,Luxury,25.072564,55.137651,Furnished,Off-Plan,Espace Real Estate,2024-07-03,2025-02-20,Mid-Tier,1 Bedroom
PF100282,Studio Apartment in Business Bay,Studio,For Rent,Residential,44883,Yearly,0,1,334,134.38,Business Bay,Dubai,Mid-Tier,25.187406,55.258282,Semi-Furnished,Ready,Espace Real Estate,2024-07-29,2025-02-20,Affordable,Studio
PF100283,4 BR Penthouse in Bur Dubai,Penthouse,For Rent,Residential,58855,Yearly,4,4,655,89.85,Bur Dubai,Dubai,Affordable,25.261132,55.29,Semi-Furnished,Off-Plan,Fäm Properties,2024-04-04,2025-02-20,Mid-Tier,4 Bedrooms
PF100284,2 BR Villa in Bur Dubai,Villa,For Rent,Residential,37114,Yearly,2,2,2618,14.18,Bur Dubai,Dubai,Affordable,25.256092,55.292163,Semi-Furnished,Off-Plan,Betterhomes,2024-12-04,2025-02-20,Affordable,2 Bedrooms
PF100285,1 BR Villa in Jumeirah Village Circle,Villa,For Rent,Residential,42471,Yearly,1,1,2771,15.33,Jumeirah Village Circle,Dubai,Affordable,25.062023,55.213676,Unfurnished,Off-Plan,Allsopp & Allsopp,2024-06-02,2025-02-20,Affordable,1 Bedroom
PF100286,3 BR Apartment in Al Barsha,Apartment,For Rent,Residential,87145,Yearly,3,3,349,249.7,Al Barsha,Dubai,Mid-Tier,25.118238,55.208078,Unfurnished,Off-Plan,Fäm Properties,2024-04-08,2025-02-20,Mid-Tier,3 Bedrooms
PF100287,1 BR Penthouse in Dubai Production City,Penthouse,For Rent,Residential,34470,Yearly,1,1,598,57.64,Dubai Production City,Dubai,Affordable,25.024434,55.187351,Furnished,Ready,Betterhomes,2024-06-14,2025-02-20,Affordable,1 Bedroom
PF100288,4 BR Townhouse in Deira,Townhouse,For Rent,Residential,60895,Yearly,4,4,4454,13.67,Deira,Dubai,Affordable,25.275042,55.307972,Furnished,Ready,Driven Properties,2024-08-24,2025-02-20,Mid-Tier,4 Bedrooms
PF100289,2 BR Apartment in Dubai Marina,Apartment,For Rent,Residential,127815,Yearly,2,2,1132,112.91,Dubai Marina,Dubai,Luxury,25.089986,55.133408,Unfurnished,Ready,Driven Properties,2024-07-17,2025-02-20,Premium,2 Bedrooms
PF100290,1 BR Apartment in Bur Dubai,Apartment,For Rent,Residential,28715,Yearly,1,1,653,43.97,Bur Dubai,Dubai,Affordable,25.261693,55.28952,Semi-Furnished,Ready,Driven Properties,2024-12-10,2025-02-20,Affordable,1 Bedroom
PF100291,Studio Apartment in Dubai Hills Estate,Studio,For Rent,Residential,30830,Yearly,0,1,862,35.77,Dubai Hills Estate,Dubai,Mid-Tier,25.11793,55.231277,Semi-Furnished,Off-Plan,Espace Real Estate,2024-07-27,2025-02-20,Affordable,Studio
PF100292,1 BR Townhouse in International City,Townhouse,For Rent,Residential,29411,Yearly,1,1,1317,22.33,International City,Dubai,Affordable,25.168729,55.404487,Unfurnished,Ready,Driven Properties,2024-09-07,2025-02-20,Affordable,1 Bedroom
PF100293,Studio Apartment in DAMAC Hills,Studio,For Rent,Residential,41257,Yearly,0,1,2164,19.07,DAMAC Hills,Dubai,Mid-Tier,25.027516,55.231909,Furnished,Off-Plan,Espace Real Estate,2024-11-17,2025-02-20,Affordable,Studio
PF100294,Studio Apartment in Mirdif,Studio,For Rent,Residential,36305,Yearly,0,1,772,47.03,Mirdif,Dubai,Mid-Tier,25.215668,55.418376,Furnished,Ready,Betterhomes,2024-02-23,2025-02-20,Affordable,Studio
PF100295,2 BR Penthouse in Arjan,Penthouse,For Rent,Residential,34051,Yearly,2,2,1033,32.96,Arjan,Dubai,Affordable,25.053423,55.21815,Semi-Furnished,Off-Plan,Provident Estate,2024-11-10,2025-02-20,Affordable,2 Bedrooms
PF100296,1 BR Penthouse in Dubai Silicon Oasis,Penthouse,For Rent,Residential,30076,Yearly,1,1,1411,21.32,Dubai Silicon Oasis,Dubai,Affordable,25.12742,55.382831,Semi-Furnished,Ready,Espace Real Estate,2024-04-02,2025-02-20,Affordable,1 Bedroom
PF100297,4 BR Apartment in Al Barsha,Apartment,For Rent,Residential,96412,Yearly,4,4,582,165.66,Al Barsha,Dubai,Mid-Tier,25.11604,55.206721,Unfurnished,Ready,CBRE UAE,2024-07-09,2025-02-20,Mid-Tier,4 Bedrooms
PF100298,Studio Apartment in Al Nahda,Studio,For Rent,Residential,15044,Yearly,0,1,1121,13.42,Al Nahda,Dubai,Affordable,25.287732,55.38509,Furnished,Off-Plan,Fäm Properties,2024-12-15,2025-02-20,Affordable,Studio
PF100299,3 BR Villa in DAMAC Hills,Villa,For Rent,Residential,117602,Yearly,3,3,4827,24.36,DAMAC Hills,Dubai,Mid-Tier,25.03251,55.235703,Unfurnished,Ready,Provident Estate,2024-02-04,2025-02-20,Premium,3 Bedrooms
PF100300,2 BR Apartment in Dubai Production City,Apartment,For Rent,Residential,31479,Yearly,2,2,305,103.21,Dubai Production City,Dubai,Affordable,25.039279,55.193525,Furnished,Ready,CBRE UAE,2024-07-07,2025-02-20,Affordable,2 Bedrooms
PF100301,3 BR Penthouse in Al Barsha,Penthouse,For Rent,Residential,50310,Yearly,3,3,883,56.98,Al Barsha,Dubai,Mid-Tier,25.112733,55.191261,Semi-Furnished,Off-Plan,Fäm Properties,2024-05-29,2025-02-20,Mid-Tier,3 Bedrooms
PF100302,Studio Apartment in Al Nahda,Studio,For Rent,Residential,18515,Yearly,0,1,691,26.79,Al Nahda,Dubai,Affordable,25.292009,55.382144,Furnished,Ready,Coldwell Banker,2024-08-20,2025-02-20,Affordable,Studio
PF100303,1 BR Townhouse in Business Bay,Townhouse,For Rent,Residential,50472,Yearly,1,1,2930,17.23,Business Bay,Dubai,Mid-Tier,25.193721,55.262859,Unfurnished,Off-Plan,Driven Properties,2024-07-17,2025-02-20,Mid-Tier,1 Bedroom
PF100304,Studio Apartment in Al Barsha,Studio,For Rent,Residential,25642,Yearly,0,1,857,29.92,Al Barsha,Dubai,Mid-Tier,25.114099,55.201094,Furnished,Ready,Engel & Völkers,2024-04-20,2025-02-20,Affordable,Studio
PF100305,2 BR Penthouse in Al Nahda,Penthouse,For Rent,Residential,19760,Yearly,2,2,2495,7.92,Al Nahda,Dubai,Affordable,25.289066,55.384807,Unfurnished,Off-Plan,Driven Properties,2024-09-19,2025-02-20,Affordable,2 Bedrooms
PF100306,Studio Apartment in Jumeirah Beach Residence,Studio,For Rent,Residential,52829,Yearly,0,1,1546,34.17,Jumeirah Beach Residence,Dubai,Luxury,25.082728,55.136838,Furnished,Off-Plan,Espace Real Estate,2024-02-21,2025-02-20,Mid-Tier,Studio
PF100307,1 BR Townhouse in Dubai Marina,Townhouse,For Rent,Residential,88855,Yearly,1,1,4556,19.5,Dubai Marina,Dubai,Luxury,25.071479,55.136277,Furnished,Off-Plan,Engel & Völkers,2024-04-30,2025-02-20,Mid-Tier,1 Bedroom
PF100308,4 BR Villa in Dubai Production City,Villa,For Rent,Residential,40654,Yearly,4,4,4135,9.83,Dubai Production City,Dubai,Affordable,25.026138,55.201876,Furnished,Ready,Provident Estate,2024-04-03,2025-02-20,Affordable,4 Bedrooms
PF100309,1 BR Penthouse in Business Bay,Penthouse,For Rent,Residential,55576,Yearly,1,1,644,86.3,Business Bay,Dubai,Mid-Tier,25.186846,55.260176,Furnished,Ready,Provident Estate,2024-03-10,2025-02-20,Mid-Tier,1 Bedroom
PF100310,1 BR Apartment in Al Nahda,Apartment,For Rent,Residential,20204,Yearly,1,1,801,25.22,Al Nahda,Dubai,Affordable,25.282754,55.37862,Semi-Furnished,Off-Plan,Coldwell Banker,2024-04-27,2025-02-20,Affordable,1 Bedroom
PF100311,Studio Apartment in Arjan,Studio,For Rent,Residential,26541,Yearly,0,1,2047,12.97,Arjan,Dubai,Affordable,25.038256,55.205294,Unfurnished,Off-Plan,Engel & Völkers,2024-05-06,2025-02-20,Affordable,Studio
PF100312,Studio Apartment in Business Bay,Studio,For Rent,Residential,47623,Yearly,0,1,1306,36.46,Business Bay,Dubai,Mid-Tier,25.188146,55.264978,Unfurnished,Ready,Allsopp & Allsopp,2024-11-08,2025-02-20,Affordable,Studio
PF100313,3 BR Villa in Mirdif,Villa,For Rent,Residential,74968,Yearly,3,3,1983,37.81,Mirdif,Dubai,Mid-Tier,25.223953,55.424144,Semi-Furnished,Ready,Coldwell Banker,2024-06-07,2025-02-20,Mid-Tier,3 Bedrooms
PF100314,3 BR Penthouse in International City,Penthouse,For Rent,Residential,35127,Yearly,3,3,2357,14.9,International City,Dubai,Affordable,25.159732,55.409309,Unfurnished,Ready,Betterhomes,2024-02-14,2025-02-20,Affordable,3 Bedrooms
PF100315,Studio Apartment in Mirdif,Studio,For Rent,Residential,32956,Yearly,0,1,2468,13.35,Mirdif,Dubai,Mid-Tier,25.218249,55.41988,Furnished,Ready,Provident Estate,2024-05-30,2025-02-20,Affordable,Studio
PF100316,2 BR Apartment in Al Barsha,Apartment,For Rent,Residential,79264,Yearly,2,2,1198,66.16,Al Barsha,Dubai,Mid-Tier,25.110014,55.209053,Unfurnished,Ready,Espace Real Estate,2024-08-17,2025-02-20,Mid-Tier,2 Bedrooms
PF100317,4 BR Townhouse in Al Barsha,Townhouse,For Rent,Residential,129558,Yearly,4,4,3289,39.39,Al Barsha,Dubai,Mid-Tier,25.11678,55.189964,Unfurnished,Ready,Savills UAE,2025-01-24,2025-02-20,Premium,4 Bedrooms
PF100318,3 BR Townhouse in Jumeirah Lake Towers,Townhouse,For Rent,Residential,67806,Yearly,3,3,4367,15.53,Jumeirah Lake Towers,Dubai,Mid-Tier,25.059359,55.131223,Furnished,Ready,CBRE UAE,2024-12-05,2025-02-20,Mid-Tier,3 Bedrooms
PF100319,Studio Apartment in Arjan,Studio,For Rent,Residential,24870,Yearly,0,1,1125,22.11,Arjan,Dubai,Affordable,25.050929,55.207815,Unfurnished,Ready,Betterhomes,2024-05-01,2025-02-20,Affordable,Studio
PF100320,4 BR Villa in Business Bay,Villa,For Rent,Residential,158622,Yearly,4,4,1258,126.09,Business Bay,Dubai,Mid-Tier,25.19213,55.272213,Unfurnished,Off-Plan,Savills UAE,2024-03-09,2025-02-20,Premium,4 Bedrooms
PF100321,2 BR Townhouse in Jumeirah Beach Residence,Townhouse,For Rent,Residential,114555,Yearly,2,2,1467,78.09,Jumeirah Beach Residence,Dubai,Luxury,25.085717,55.137547,Semi-Furnished,Off-Plan,Fäm Properties,2024-09-11,2025-02-20,Premium,2 Bedrooms
PF100322,4 BR Townhouse in Dubai Hills Estate,Townhouse,For Rent,Residential,133890,Yearly,4,4,1786,74.97,Dubai Hills Estate,Dubai,Mid-Tier,25.111468,55.24268,Furnished,Ready,Betterhomes,2024-06-30,2025-02-20,Premium,4 Bedrooms
PF100323,3 BR Apartment in DAMAC Hills,Apartment,For Rent,Residential,74318,Yearly,3,3,1603,46.36,DAMAC Hills,Dubai,Mid-Tier,25.035721,55.250151,Semi-Furnished,Ready,Engel & Völkers,2024-05-24,2025-02-20,Mid-Tier,3 Bedrooms
PF100324,2 BR Apartment in Business Bay,Apartment,For Rent,Residential,63537,Yearly,2,2,1720,36.94,Business Bay,Dubai,Mid-Tier,25.194848,55.258358,Semi-Furnished,Off-Plan,Engel & Völkers,2024-03-17,2025-02-20,Mid-Tier,2 Bedrooms
PF100325,2 BR Villa in Palm Jumeirah,Villa,For Rent,Residential,220873,Yearly,2,2,905,244.06,Palm Jumeirah,Dubai,Luxury,25.10941,55.14474,Furnished,Off-Plan,Engel & Völkers,2024-02-01,2025-02-20,Luxury,2 Bedrooms
PF100326,1 BR Penthouse in Bur Dubai,Penthouse,For Rent,Residential,40119,Yearly,1,1,1851,21.67,Bur Dubai,Dubai,Affordable,25.250225,55.294707,Semi-Furnished,Ready,Espace Real Estate,2024-10-03,2025-02-20,Affordable,1 Bedroom
PF100327,Studio Apartment in Al Nahda,Studio,For Rent,Residential,9547,Yearly,0,1,1507,6.34,Al Nahda,Dubai,Affordable,25.282302,55.374623,Furnished,Off-Plan,Espace Real Estate,2024-03-25,2025-02-20,Affordable,Studio
PF100328,1 BR Apartment in Deira,Apartment,For Rent,Residential,26547,Yearly,1,1,681,38.98,Deira,Dubai,Affordable,25.266459,55.319206,Semi-Furnished,Ready,Coldwell Banker,2024-10-05,2025-02-20,Affordable,1 Bedroom
PF100329,4 BR Penthouse in Dubai Hills Estate,Penthouse,For Rent,Residential,120886,Yearly,4,4,519,232.92,Dubai Hills Estate,Dubai,Mid-Tier,25.105925,55.232111,Unfurnished,Off-Plan,Driven Properties,2024-05-08,2025-02-20,Premium,4 Bedrooms
PF100330,1 BR Apartment in Jumeirah Village Circle,Apartment,For Rent,Residential,26776,Yearly,1,1,1909,14.03,Jumeirah Village Circle,Dubai,Affordable,25.060535,55.214797,Furnished,Off-Plan,Betterhomes,2024-04-19,2025-02-20,Affordable,1 Bedroom
PF100331,Studio Apartment in Bur Dubai,Studio,For Rent,Residential,22151,Yearly,0,1,2267,9.77,Bur Dubai,Dubai,Affordable,25.247193,55.287715,Semi-Furnished,Off-Plan,Allsopp & Allsopp,2024-04-28,2025-02-20,Affordable,Studio
PF100332,Studio Apartment in Arjan,Studio,For Rent,Residential,24104,Yearly,0,1,1928,12.5,Arjan,Dubai,Affordable,25.044219,55.218898,Furnished,Off-Plan,Espace Real Estate,2024-06-15,2025-02-20,Affordable,Studio
PF100333,3 BR Townhouse in International City,Townhouse,For Rent,Residential,28935,Yearly,3,3,4001,7.23,International City,Dubai,Affordable,25.154192,55.412695,Furnished,Off-Plan,Savills UAE,2024-06-14,2025-02-20,Affordable,3 Bedrooms
PF100334,1 BR Apartment in Downtown Dubai,Apartment,For Rent,Residential,70863,Yearly,1,1,1708,41.49,Downtown Dubai,Dubai,Luxury,25.203364,55.27268,Furnished,Ready,Coldwell Banker,2024-11-28,2025-02-20,Mid-Tier,1 Bedroom
PF100335,3 BR Penthouse in Dubai Sports City,Penthouse,For Rent,Residential,48531,Yearly,3,3,2250,21.57,Dubai Sports City,Dubai,Affordable,25.038977,55.222896,Furnished,Ready,Allsopp & Allsopp,2025-01-31,2025-02-20,Affordable,3 Bedrooms
PF100336,1 BR Villa in Al Nahda,Villa,For Rent,Residential,17460,Yearly,1,1,1928,9.06,Al Nahda,Dubai,Affordable,25.284424,55.377867,Unfurnished,Ready,Espace Real Estate,2025-01-15,2025-02-20,Affordable,1 Bedroom
PF100337,2 BR Townhouse in Arabian Ranches,Townhouse,For Rent,Residential,132809,Yearly,2,2,1062,125.06,Arabian Ranches,Dubai,Luxury,25.051062,55.267347,Unfurnished,Off-Plan,Betterhomes,2024-07-16,2025-02-20,Premium,2 Bedrooms
PF100338,4 BR Penthouse in Arabian Ranches,Penthouse,For Rent,Residential,239244,Yearly,4,4,1997,119.8,Arabian Ranches,Dubai,Luxury,25.046293,55.270732,Furnished,Ready,Savills UAE,2024-11-25,2025-02-20,Luxury,4 Bedrooms
PF100339,2 BR Townhouse in Jumeirah Beach Residence,Townhouse,For Rent,Residential,124970,Yearly,2,2,2513,49.73,Jumeirah Beach Residence,Dubai,Luxury,25.073861,55.132612,Unfurnished,Ready,Espace Real Estate,2024-12-08,2025-02-20,Premium,2 Bedrooms
PF100340,3 BR Villa in Mirdif,Villa,For Rent,Residential,90620,Yearly,3,3,3640,24.9,Mirdif,Dubai,Mid-Tier,25.211876,55.425991,Semi-Furnished,Ready,Betterhomes,2024-07-19,2025-02-20,Mid-Tier,3 Bedrooms
PF100341,2 BR Townhouse in Arjan,Townhouse,For Rent,Residential,26392,Yearly,2,2,3117,8.47,Arjan,Dubai,Affordable,25.051148,55.207061,Unfurnished,Ready,Provident Estate,2024-06-23,2025-02-20,Affordable,2 Bedrooms
PF100342,2 BR Penthouse in Business Bay,Penthouse,For Rent,Residential,95153,Yearly,2,2,1614,58.95,Business Bay,Dubai,Mid-Tier,25.180588,55.263335,Furnished,Ready,Engel & Völkers,2024-12-27,2025-02-20,Mid-Tier,2 Bedrooms
PF100343,3 BR Penthouse in Jumeirah Lake Towers,Penthouse,For Rent,Residential,113728,Yearly,3,3,2415,47.09,Jumeirah Lake Towers,Dubai,Mid-Tier,25.075944,55.14652,Furnished,Ready,Driven Properties,2024-10-21,2025-02-20,Premium,3 Bedrooms
PF100344,3 BR Villa in Dubai Sports City,Villa,For Rent,Residential,32276,Yearly,3,3,1773,18.2,Dubai Sports City,Dubai,Affordable,25.036855,55.231659,Furnished,Ready,Engel & Völkers,2024-03-01,2025-02-20,Affordable,3 Bedrooms
PF100345,2 BR Villa in Downtown Dubai,Villa,For Rent,Residential,113319,Yearly,2,2,3367,33.66,Downtown Dubai,Dubai,Luxury,25.20367,55.274503,Furnished,Ready,Provident Estate,2024-12-22,2025-02-20,Premium,2 Bedrooms
PF100346,3 BR Penthouse in International City,Penthouse,For Rent,Residential,28582,Yearly,3,3,2243,12.74,International City,Dubai,Affordable,25.165038,55.410895,Unfurnished,Ready,Driven Properties,2024-04-24,2025-02-20,Affordable,3 Bedrooms
PF100347,3 BR Apartment in Palm Jumeirah,Apartment,For Rent,Residential,267246,Yearly,3,3,1177,227.06,Palm Jumeirah,Dubai,Luxury,25.119542,55.141948,Furnished,Off-Plan,Coldwell Banker,2025-01-12,2025-02-20,Luxury,3 Bedrooms
PF100348,Studio Apartment in Dubai Sports City,Studio,For Rent,Residential,12791,Yearly,0,1,2241,5.71,Dubai Sports City,Dubai,Affordable,25.05123,55.227947,Furnished,Ready,Driven Properties,2024-12-04,2025-02-20,Affordable,Studio
PF100349,2 BR Townhouse in Arabian Ranches,Townhouse,For Rent,Residential,216988,Yearly,2,2,3434,63.19,Arabian Ranches,Dubai,Luxury,25.060332,55.26858,Unfurnished,Off-Plan,CBRE UAE,2024-05-22,2025-02-20,Luxury,2 Bedrooms
PF100350,3 BR Apartment in Arabian Ranches,Apartment,For Rent,Residential,158311,Yearly,3,3,2395,66.1,Arabian Ranches,Dubai,Luxury,25.063289,55.27873,Semi-Furnished,Off-Plan,Driven Properties,2024-08-10,2025-02-20,Premium,3 Bedrooms
PF100351,3 BR Apartment in Jumeirah Beach Residence,Apartment,For Rent,Residential,154892,Yearly,3,3,1432,108.16,Jumeirah Beach Residence,Dubai,Luxury,25.079012,55.14013,Semi-Furnished,Off-Plan,Provident Estate,2024-06-13,2025-02-20,Premium,3 Bedrooms
PF100352,4 BR Villa in Business Bay,Villa,For Rent,Residential,170941,Yearly,4,4,815,209.74,Business Bay,Dubai,Mid-Tier,25.191309,55.271047,Unfurnished,Off-Plan,Espace Real Estate,2024-12-04,2025-02-20,Premium,4 Bedrooms
PF100353,3 BR Townhouse in Palm Jumeirah,Townhouse,For Rent,Residential,297608,Yearly,3,3,3778,78.77,Palm Jumeirah,Dubai,Luxury,25.110492,55.143735,Semi-Furnished,Ready,Fäm Properties,2024-11-25,2025-02-20,Luxury,3 Bedrooms
PF100354,4 BR Penthouse in Al Barsha,Penthouse,For Rent,Residential,123046,Yearly,4,4,1768,69.6,Al Barsha,Dubai,Mid-Tier,25.108646,55.206308,Semi-Furnished,Ready,Driven Properties,2025-01-02,2025-02-20,Premium,4 Bedrooms
PF100355,3 BR Villa in Jumeirah Beach Residence,Villa,For Rent,Residential,142682,Yearly,3,3,4929,28.95,Jumeirah Beach Residence,Dubai,Luxury,25.081458,55.126561,Unfurnished,Ready,Provident Estate,2025-01-14,2025-02-20,Premium,3 Bedrooms
PF100356,1 BR Townhouse in International City,Townhouse,For Rent,Residential,22244,Yearly,1,1,3064,7.26,International City,Dubai,Affordable,25.160734,55.415611,Furnished,Off-Plan,Betterhomes,2024-09-25,2025-02-20,Affordable,1 Bedroom
PF100357,4 BR Apartment in DAMAC Hills,Apartment,For Rent,Residential,121420,Yearly,4,4,1096,110.78,DAMAC Hills,Dubai,Mid-Tier,25.02731,55.24815,Semi-Furnished,Off-Plan,Coldwell Banker,2024-08-14,2025-02-20,Premium,4 Bedrooms
PF100358,1 BR Villa in Downtown Dubai,Villa,For Rent,Residential,81377,Yearly,1,1,3157,25.78,Downtown Dubai,Dubai,Luxury,25.195384,55.275788,Furnished,Off-Plan,Espace Real Estate,2024-09-22,2025-02-20,Mid-Tier,1 Bedroom
PF100359,3 BR Townhouse in Dubai Marina,Townhouse,For Rent,Residential,189252,Yearly,3,3,1798,105.26,Dubai Marina,Dubai,Luxury,25.076768,55.13146,Unfurnished,Ready,Espace Real Estate,2024-09-19,2025-02-20,Premium,3 Bedrooms
PF100360,1 BR Penthouse in DAMAC Hills,Penthouse,For Rent,Residential,71021,Yearly,1,1,660,107.61,DAMAC Hills,Dubai,Mid-Tier,25.019888,55.239474,Unfurnished,Off-Plan,Engel & Völkers,2024-09-07,2025-02-20,Mid-Tier,1 Bedroom
PF100361,Studio Apartment in Deira,Studio,For Rent,Residential,10618,Yearly,0,1,2486,4.27,Deira,Dubai,Affordable,25.263688,55.306962,Unfurnished,Ready,Betterhomes,2024-02-08,2025-02-20,Affordable,Studio
PF100362,1 BR Villa in Palm Jumeirah,Villa,For Rent,Residential,189188,Yearly,1,1,2906,65.1,Palm Jumeirah,Dubai,Luxury,25.104979,55.136671,Unfurnished,Ready,Allsopp & Allsopp,2024-11-28,2025-02-20,Premium,1 Bedroom
PF100363,2 BR Townhouse in Downtown Dubai,Townhouse,For Rent,Residential,134783,Yearly,2,2,4612,29.22,Downtown Dubai,Dubai,Luxury,25.199127,55.271157,Furnished,Off-Plan,Engel & Völkers,2025-01-17,2025-02-20,Premium,2 Bedrooms
PF100364,1 BR Villa in International City,Villa,For Rent,Residential,31224,Yearly,1,1,3654,8.55,International City,Dubai,Affordable,25.153682,55.408386,Furnished,Ready,Savills UAE,2024-04-08,2025-02-20,Affordable,1 Bedroom
PF100365,1 BR Apartment in Dubai Sports City,Apartment,For Rent,Residential,34316,Yearly,1,1,453,75.75,Dubai Sports City,Dubai,Affordable,25.040504,55.227806,Semi-Furnished,Ready,Savills UAE,2024-10-31,2025-02-20,Affordable,1 Bedroom
PF100366,Studio Apartment in Downtown Dubai,Studio,For Rent,Residential,87832,Yearly,0,1,380,231.14,Downtown Dubai,Dubai,Luxury,25.188165,55.266716,Unfurnished,Ready,CBRE UAE,2024-09-15,2025-02-20,Mid-Tier,Studio
PF100367,3 BR Villa in Mirdif,Villa,For Rent,Residential,58160,Yearly,3,3,426,136.53,Mirdif,Dubai,Mid-Tier,25.217122,55.421433,Semi-Furnished,Off-Plan,Savills UAE,2025-01-05,2025-02-20,Mid-Tier,3 Bedrooms
PF100368,1 BR Penthouse in Arabian Ranches,Penthouse,For Rent,Residential,110251,Yearly,1,1,2395,46.03,Arabian Ranches,Dubai,Luxury,25.057675,55.261755,Furnished,Off-Plan,Provident Estate,2024-03-30,2025-02-20,Premium,1 Bedroom
PF100369,1 BR Townhouse in Arabian Ranches,Townhouse,For Rent,Residential,186997,Yearly,1,1,2002,93.41,Arabian Ranches,Dubai,Luxury,25.050458,55.267595,Furnished,Off-Plan,Provident Estate,2024-04-23,2025-02-20,Premium,1 Bedroom
PF100370,2 BR Villa in Arjan,Villa,For Rent,Residential,25361,Yearly,2,2,454,55.86,Arjan,Dubai,Affordable,25.048233,55.219138,Semi-Furnished,Off-Plan,Espace Real Estate,2024-11-20,2025-02-20,Affordable,2 Bedrooms
PF100371,4 BR Apartment in Dubai Marina,Apartment,For Rent,Residential,132414,Yearly,4,4,1348,98.23,Dubai Marina,Dubai,Luxury,25.083387,55.139435,Unfurnished,Off-Plan,Betterhomes,2024-07-01,2025-02-20,Premium,4 Bedrooms
PF100372,1 BR Apartment in Jumeirah Beach Residence,Apartment,For Rent,Residential,86159,Yearly,1,1,1775,48.54,Jumeirah Beach Residence,Dubai,Luxury,25.082232,55.129154,Furnished,Ready,Betterhomes,2024-03-31,2025-02-20,Mid-Tier,1 Bedroom
PF100373,1 BR Townhouse in Business Bay,Townhouse,For Rent,Residential,54901,Yearly,1,1,3935,13.95,Business Bay,Dubai,Mid-Tier,25.194302,55.260366,Unfurnished,Off-Plan,Espace Real Estate,2024-03-19,2025-02-20,Mid-Tier,1 Bedroom
PF100374,3 BR Penthouse in Jumeirah Beach Residence,Penthouse,For Rent,Residential,173806,Yearly,3,3,1413,123.0,Jumeirah Beach Residence,Dubai,Luxury,25.082914,55.136698,Unfurnished,Ready,Allsopp & Allsopp,2024-10-02,2025-02-20,Premium,3 Bedrooms
PF100375,Studio Apartment in Business Bay,Studio,For Rent,Residential,59664,Yearly,0,1,952,62.67,Business Bay,Dubai,Mid-Tier,25.177274,55.273225,Semi-Furnished,Off-Plan,Espace Real Estate,2024-10-05,2025-02-20,Mid-Tier,Studio
PF100376,3 BR Townhouse in Arabian Ranches,Townhouse,For Rent,Residential,165064,Yearly,3,3,1420,116.24,Arabian Ranches,Dubai,Luxury,25.052962,55.269162,Unfurnished,Ready,Allsopp & Allsopp,2024-08-29,2025-02-20,Premium,3 Bedrooms
PF100377,2 BR Apartment in Mirdif,Apartment,For Rent,Residential,73056,Yearly,2,2,2449,29.83,Mirdif,Dubai,Mid-Tier,25.226451,55.419733,Furnished,Off-Plan,CBRE UAE,2024-11-16,2025-02-20,Mid-Tier,2 Bedrooms
PF100378,4 BR Apartment in Dubai Sports City,Apartment,For Rent,Residential,80050,Yearly,4,4,1318,60.74,Dubai Sports City,Dubai,Affordable,25.042639,55.228274,Unfurnished,Ready,CBRE UAE,2024-12-25,2025-02-20,Mid-Tier,4 Bedrooms
PF100379,Studio Apartment in Arabian Ranches,Studio,For Rent,Residential,66526,Yearly,0,1,942,70.62,Arabian Ranches,Dubai,Luxury,25.053411,55.268786,Furnished,Ready,Engel & Völkers,2024-10-11,2025-02-20,Mid-Tier,Studio
PF100380,1 BR Townhouse in Dubai Silicon Oasis,Townhouse,For Rent,Residential,28160,Yearly,1,1,762,36.96,Dubai Silicon Oasis,Dubai,Affordable,25.121039,55.38241,Unfurnished,Ready,Allsopp & Allsopp,2024-08-12,2025-02-20,Affordable,1 Bedroom
PF100381,3 BR Penthouse in Al Nahda,Penthouse,For Rent,Residential,25060,Yearly,3,3,2341,10.7,Al Nahda,Dubai,Affordable,25.290841,55.371774,Semi-Furnished,Ready,Allsopp & Allsopp,2024-10-12,2025-02-20,Affordable,3 Bedrooms
PF100382,3 BR Apartment in Deira,Apartment,For Rent,Residential,45907,Yearly,3,3,300,153.02,Deira,Dubai,Affordable,25.276218,55.315336,Semi-Furnished,Off-Plan,CBRE UAE,2024-12-13,2025-02-20,Affordable,3 Bedrooms
PF100383,1 BR Penthouse in Dubai Production City,Penthouse,For Rent,Residential,24618,Yearly,1,1,1788,13.77,Dubai Production City,Dubai,Affordable,25.040606,55.202332,Unfurnished,Off-Plan,Fäm Properties,2024-09-20,2025-02-20,Affordable,1 Bedroom
PF100384,Studio Apartment in Al Nahda,Studio,For Rent,Residential,10596,Yearly,0,1,1208,8.77,Al Nahda,Dubai,Affordable,25.281944,55.376503,Unfurnished,Off-Plan,Allsopp & Allsopp,2024-12-21,2025-02-20,Affordable,Studio
PF100385,1 BR Penthouse in Downtown Dubai,Penthouse,For Rent,Residential,75885,Yearly,1,1,1976,38.4,Downtown Dubai,Dubai,Luxury,25.189339,55.276617,Furnished,Off-Plan,Provident Estate,2024-05-07,2025-02-20,Mid-Tier,1 Bedroom
PF100386,1 BR Townhouse in Al Nahda,Townhouse,For Rent,Residential,15071,Yearly,1,1,3745,4.02,Al Nahda,Dubai,Affordable,25.28283,55.382065,Semi-Furnished,Ready,Engel & Völkers,2025-01-10,2025-02-20,Affordable,1 Bedroom
PF100387,4 BR Villa in Al Nahda,Villa,For Rent,Residential,51517,Yearly,4,4,385,133.81,Al Nahda,Dubai,Affordable,25.292507,55.370371,Semi-Furnished,Off-Plan,CBRE UAE,2024-09-09,2025-02-20,Mid-Tier,4 Bedrooms
PF100388,4 BR Villa in Dubai Hills Estate,Villa,For Rent,Residential,115240,Yearly,4,4,1198,96.19,Dubai Hills Estate,Dubai,Mid-Tier,25.111648,55.240011,Semi-Furnished,Off-Plan,Coldwell Banker,2024-07-14,2025-02-20,Premium,4 Bedrooms
PF100389,1 BR Townhouse in Arabian Ranches,Townhouse,For Rent,Residential,164009,Yearly,1,1,3158,51.93,Arabian Ranches,Dubai,Luxury,25.06271,55.268457,Furnished,Off-Plan,Savills UAE,2024-04-09,2025-02-20,Premium,1 Bedroom
PF100390,2 BR Townhouse in Dubai Sports City,Townhouse,For Rent,Residential,35318,Yearly,2,2,1995,17.7,Dubai Sports City,Dubai,Affordable,25.037194,55.229288,Unfurnished,Ready,Espace Real Estate,2025-01-17,2025-02-20,Affordable,2 Bedrooms
PF100391,4 BR Townhouse in Dubai Sports City,Townhouse,For Rent,Residential,48844,Yearly,4,4,3235,15.1,Dubai Sports City,Dubai,Affordable,25.044246,55.226656,Semi-Furnished,Off-Plan,CBRE UAE,2025-01-07,2025-02-20,Affordable,4 Bedrooms
PF100392,3 BR Apartment in Jumeirah Village Circle,Apartment,For Rent,Residential,83108,Yearly,3,3,736,112.92,Jumeirah Village Circle,Dubai,Affordable,25.049605,55.200907,Furnished,Ready,Driven Properties,2025-01-09,2025-02-20,Mid-Tier,3 Bedrooms
PF100393,2 BR Townhouse in Dubai Hills Estate,Townhouse,For Rent,Residential,71272,Yearly,2,2,858,83.07,Dubai Hills Estate,Dubai,Mid-Tier,25.117712,55.233903,Furnished,Off-Plan,Engel & Völkers,2024-11-04,2025-02-20,Mid-Tier,2 Bedrooms
PF100394,4 BR Villa in Jumeirah Beach Residence,Villa,For Rent,Residential,254728,Yearly,4,4,4947,51.49,Jumeirah Beach Residence,Dubai,Luxury,25.073978,55.133118,Unfurnished,Ready,Coldwell Banker,2025-01-22,2025-02-20,Luxury,4 Bedrooms
PF100395,3 BR Townhouse in Deira,Townhouse,For Rent,Residential,45710,Yearly,3,3,790,57.86,Deira,Dubai,Affordable,25.259959,55.304527,Unfurnished,Ready,Fäm Properties,2024-12-14,2025-02-20,Affordable,3 Bedrooms
PF100396,4 BR Villa in DAMAC Hills,Villa,For Rent,Residential,151297,Yearly,4,4,1935,78.19,DAMAC Hills,Dubai,Mid-Tier,25.023184,55.234349,Furnished,Ready,Espace Real Estate,2025-01-15,2025-02-20,Premium,4 Bedrooms
PF100397,Studio Apartment in Dubai Sports City,Studio,For Rent,Residential,24860,Yearly,0,1,466,53.35,Dubai Sports City,Dubai,Affordable,25.04157,55.226132,Furnished,Off-Plan,Betterhomes,2024-04-07,2025-02-20,Affordable,Studio
PF100398,3 BR Villa in Dubai Silicon Oasis,Villa,For Rent,Residential,29540,Yearly,3,3,1609,18.36,Dubai Silicon Oasis,Dubai,Affordable,25.129473,55.383338,Semi-Furnished,Off-Plan,Engel & Völkers,2024-12-17,2025-02-20,Affordable,3 Bedrooms
PF100399,4 BR Townhouse in DAMAC Hills,Townhouse,For Rent,Residential,82164,Yearly,4,4,2953,27.82,DAMAC Hills,Dubai,Mid-Tier,25.027808,55.24994,Furnished,Ready,Coldwell Banker,2024-10-24,2025-02-20,Mid-Tier,4 Bedrooms
PF100400,4 BR Penthouse in Dubai Production City,Penthouse,For Rent,Residential,40518,Yearly,4,4,1731,23.41,Dubai Production City,Dubai,Affordable,25.028524,55.190267,Unfurnished,Off-Plan,Driven Properties,2024-07-19,2025-02-20,Affordable,4 Bedrooms
PF100401,4 BR Penthouse in Jumeirah Lake Towers,Penthouse,For Rent,Residential,122680,Yearly,4,4,336,365.12,Jumeirah Lake Towers,Dubai,Mid-Tier,25.060894,55.13702,Semi-Furnished,Ready,Betterhomes,2024-06-03,2025-02-20,Premium,4 Bedrooms
PF100402,3 BR Apartment in Dubai Silicon Oasis,Apartment,For Rent,Residential,56745,Yearly,3,3,1350,42.03,Dubai Silicon Oasis,Dubai,Affordable,25.121705,55.377057,Unfurnished,Off-Plan,Engel & Völkers,2024-10-22,2025-02-20,Mid-Tier,3 Bedrooms
PF100403,2 BR Villa in Downtown Dubai,Villa,For Rent,Residential,118785,Yearly,2,2,4559,26.06,Downtown Dubai,Dubai,Luxury,25.188847,55.266319,Semi-Furnished,Ready,Allsopp & Allsopp,2024-11-02,2025-02-20,Premium,2 Bedrooms
PF100404,1 BR Penthouse in Jumeirah Lake Towers,Penthouse,For Rent,Residential,69836,Yearly,1,1,725,96.33,Jumeirah Lake Towers,Dubai,Mid-Tier,25.062712,55.146675,Semi-Furnished,Ready,Espace Real Estate,2024-09-10,2025-02-20,Mid-Tier,1 Bedroom
PF100405,3 BR Townhouse in Palm Jumeirah,Townhouse,For Rent,Residential,227917,Yearly,3,3,1066,213.81,Palm Jumeirah,Dubai,Luxury,25.103865,55.13256,Semi-Furnished,Ready,Savills UAE,2024-06-08,2025-02-20,Luxury,3 Bedrooms
PF100406,2 BR Penthouse in Al Barsha,Penthouse,For Rent,Residential,57087,Yearly,2,2,2147,26.59,Al Barsha,Dubai,Mid-Tier,25.111104,55.198061,Unfurnished,Ready,CBRE UAE,2024-02-09,2025-02-20,Mid-Tier,2 Bedrooms
PF100407,4 BR Apartment in Palm Jumeirah,Apartment,For Rent,Residential,500269,Yearly,4,4,486,1029.36,Palm Jumeirah,Dubai,Luxury,25.116418,55.130452,Furnished,Off-Plan,Driven Properties,2024-10-15,2025-02-20,Luxury,4 Bedrooms
PF100408,Studio Apartment in Arabian Ranches,Studio,For Rent,Residential,101899,Yearly,0,1,2092,48.71,Arabian Ranches,Dubai,Luxury,25.050928,55.275842,Unfurnished,Ready,CBRE UAE,2024-02-16,2025-02-20,Premium,Studio
PF100409,1 BR Penthouse in Al Barsha,Penthouse,For Rent,Residential,51634,Yearly,1,1,1508,34.24,Al Barsha,Dubai,Mid-Tier,25.117703,55.192282,Semi-Furnished,Off-Plan,Betterhomes,2025-01-12,2025-02-20,Mid-Tier,1 Bedroom
PF100410,4 BR Villa in Dubai Production City,Villa,For Rent,Residential,42057,Yearly,4,4,692,60.78,Dubai Production City,Dubai,Affordable,25.024201,55.197933,Semi-Furnished,Ready,Driven Properties,2024-11-02,2025-02-20,Affordable,4 Bedrooms
PF100411,2 BR Villa in Jumeirah Lake Towers,Villa,For Rent,Residential,64838,Yearly,2,2,4548,14.26,Jumeirah Lake Towers,Dubai,Mid-Tier,25.061449,55.13378,Unfurnished,Ready,Allsopp & Allsopp,2024-12-12,2025-02-20,Mid-Tier,2 Bedrooms
PF100412,4 BR Apartment in Dubai Hills Estate,Apartment,For Rent,Residential,180687,Yearly,4,4,599,301.65,Dubai Hills Estate,Dubai,Mid-Tier,25.109713,55.229347,Furnished,Off-Plan,Fäm Properties,2024-03-22,2025-02-20,Premium,4 Bedrooms
PF100413,1 BR Villa in International City,Villa,For Rent,Residential,14894,Yearly,1,1,2685,5.55,International City,Dubai,Affordable,25.16569,55.421902,Unfurnished,Off-Plan,Fäm Properties,2024-07-12,2025-02-20,Affordable,1 Bedroom
PF100414,2 BR Villa in Arabian Ranches,Villa,For Rent,Residential,250430,Yearly,2,2,4993,50.16,Arabian Ranches,Dubai,Luxury,25.05059,55.265727,Furnished,Ready,Fäm Properties,2024-09-07,2025-02-20,Luxury,2 Bedrooms
PF100415,1 BR Penthouse in Al Barsha,Penthouse,For Rent,Residential,39292,Yearly,1,1,1772,22.17,Al Barsha,Dubai,Mid-Tier,25.101186,55.204059,Unfurnished,Off-Plan,Fäm Properties,2024-10-03,2025-02-20,Affordable,1 Bedroom
PF100416,3 BR Apartment in Jumeirah Village Circle,Apartment,For Rent,Residential,55822,Yearly,3,3,635,87.91,Jumeirah Village Circle,Dubai,Affordable,25.065936,55.215174,Semi-Furnished,Ready,Driven Properties,2024-04-12,2025-02-20,Mid-Tier,3 Bedrooms
PF100417,Studio Apartment in Dubai Marina,Studio,For Rent,Residential,38720,Yearly,0,1,2377,16.29,Dubai Marina,Dubai,Luxury,25.083133,55.146553,Unfurnished,Ready,Betterhomes,2024-11-23,2025-02-20,Affordable,Studio
PF100418,2 BR Penthouse in Dubai Production City,Penthouse,For Rent,Residential,40884,Yearly,2,2,908,45.03,Dubai Production City,Dubai,Affordable,25.031416,55.190466,Semi-Furnished,Off-Plan,Espace Real Estate,2024-11-28,2025-02-20,Affordable,2 Bedrooms
PF100419,4 BR Apartment in Al Nahda,Apartment,For Rent,Residential,46501,Yearly,4,4,1790,25.98,Al Nahda,Dubai,Affordable,25.291943,55.382654,Semi-Furnished,Ready,CBRE UAE,2024-12-11,2025-02-20,Affordable,4 Bedrooms
PF100420,3 BR Villa in Business Bay,Villa,For Rent,Residential,80088,Yearly,3,3,4989,16.05,Business Bay,Dubai,Mid-Tier,25.194174,55.268188,Semi-Furnished,Off-Plan,Fäm Properties,2024-04-15,2025-02-20,Mid-Tier,3 Bedrooms
PF100421,1 BR Penthouse in Downtown Dubai,Penthouse,For Rent,Residential,84262,Yearly,1,1,557,151.28,Downtown Dubai,Dubai,Luxury,25.192487,55.26908,Furnished,Off-Plan,Coldwell Banker,2025-01-08,2025-02-20,Mid-Tier,1 Bedroom
PF100422,3 BR Apartment in Arjan,Apartment,For Rent,Residential,36738,Yearly,3,3,1627,22.58,Arjan,Dubai,Affordable,25.036865,55.220369,Unfurnished,Off-Plan,Savills UAE,2024-12-21,2025-02-20,Affordable,3 Bedrooms
PF100423,4 BR Villa in Dubai Production City,Villa,For Rent,Residential,54513,Yearly,4,4,3450,15.8,Dubai Production City,Dubai,Affordable,25.031406,55.199067,Semi-Furnished,Off-Plan,Coldwell Banker,2024-03-11,2025-02-20,Mid-Tier,4 Bedrooms
PF100424,4 BR Penthouse in Al Barsha,Penthouse,For Rent,Residential,91690,Yearly,4,4,1713,53.53,Al Barsha,Dubai,Mid-Tier,25.108237,55.199042,Furnished,Ready,Engel & Völkers,2024-12-06,2025-02-20,Mid-Tier,4 Bedrooms
PF100425,1 BR Apartment in Dubai Hills Estate,Apartment,For Rent,Residential,89208,Yearly,1,1,1450,61.52,Dubai Hills Estate,Dubai,Mid-Tier,25.10813,55.231738,Semi-Furnished,Ready,Provident Estate,2024-08-04,2025-02-20,Mid-Tier,1 Bedroom
PF100426,2 BR Apartment in Bur Dubai,Apartment,For Rent,Residential,50900,Yearly,2,2,2261,22.51,Bur Dubai,Dubai,Affordable,25.25278,55.299016,Unfurnished,Ready,Provident Estate,2024-12-28,2025-02-20,Mid-Tier,2 Bedrooms
PF100427,1 BR Villa in Downtown Dubai,Villa,For Rent,Residential,75360,Yearly,1,1,4549,16.57,Downtown Dubai,Dubai,Luxury,25.187984,55.275845,Furnished,Off-Plan,Espace Real Estate,2024-02-29,2025-02-20,Mid-Tier,1 Bedroom
PF100428,3 BR Apartment in Dubai Sports City,Apartment,For Rent,Residential,52291,Yearly,3,3,651,80.32,Dubai Sports City,Dubai,Affordable,25.037332,55.227131,Unfurnished,Ready,Provident Estate,2024-09-29,2025-02-20,Mid-Tier,3 Bedrooms
PF100429,4 BR Villa in Bur Dubai,Villa,For Rent,Residential,55378,Yearly,4,4,4534,12.21,Bur Dubai,Dubai,Affordable,25.24849,55.301684,Unfurnished,Ready,Provident Estate,2024-07-25,2025-02-20,Mid-Tier,4 Bedrooms
PF100430,3 BR Villa in Deira,Villa,For Rent,Residential,28268,Yearly,3,3,485,58.28,Deira,Dubai,Affordable,25.263747,55.316692,Semi-Furnished,Off-Plan,Espace Real Estate,2024-10-16,2025-02-20,Affordable,3 Bedrooms
PF100431,Studio Apartment in Arabian Ranches,Studio,For Rent,Residential,88255,Yearly,0,1,2249,39.24,Arabian Ranches,Dubai,Luxury,25.061332,55.271396,Semi-Furnished,Ready,Allsopp & Allsopp,2024-10-30,2025-02-20,Mid-Tier,Studio
PF100432,1 BR Apartment in Arjan,Apartment,For Rent,Residential,39394,Yearly,1,1,2438,16.16,Arjan,Dubai,Affordable,25.043214,55.218496,Semi-Furnished,Off-Plan,Provident Estate,2025-01-23,2025-02-20,Affordable,1 Bedroom
PF100433,3 BR Townhouse in Arjan,Townhouse,For Rent,Residential,41283,Yearly,3,3,3835,10.76,Arjan,Dubai,Affordable,25.037478,55.210543,Furnished,Off-Plan,Savills UAE,2024-05-30,2025-02-20,Affordable,3 Bedrooms
PF100434,3 BR Townhouse in Dubai Production City,Townhouse,For Rent,Residential,36231,Yearly,3,3,394,91.96,Dubai Production City,Dubai,Affordable,25.038283,55.201788,Semi-Furnished,Ready,CBRE UAE,2024-11-22,2025-02-20,Affordable,3 Bedrooms
PF100435,3 BR Villa in Palm Jumeirah,Villa,For Rent,Residential,315373,Yearly,3,3,3699,85.26,Palm Jumeirah,Dubai,Luxury,25.109645,55.132096,Semi-Furnished,Off-Plan,Driven Properties,2024-12-30,2025-02-20,Luxury,3 Bedrooms
PF100436,3 BR Townhouse in Dubai Production City,Townhouse,For Rent,Residential,52860,Yearly,3,3,2607,20.28,Dubai Production City,Dubai,Affordable,25.043936,55.193949,Unfurnished,Off-Plan,Espace Real Estate,2024-05-15,2025-02-20,Mid-Tier,3 Bedrooms
PF100437,4 BR Penthouse in International City,Penthouse,For Rent,Residential,39472,Yearly,4,4,1556,25.37,International City,Dubai,Affordable,25.164853,55.419384,Semi-Furnished,Ready,Allsopp & Allsopp,2024-08-22,2025-02-20,Affordable,4 Bedrooms
PF100438,3 BR Villa in Al Barsha,Villa,For Rent,Residential,53485,Yearly,3,3,2106,25.4,Al Barsha,Dubai,Mid-Tier,25.108667,55.205122,Semi-Furnished,Ready,Espace Real Estate,2024-11-08,2025-02-20,Mid-Tier,3 Bedrooms
PF100439,Studio Apartment in Deira,Studio,For Rent,Residential,23178,Yearly,0,1,673,34.44,Deira,Dubai,Affordable,25.276165,55.308933,Unfurnished,Ready,Allsopp & Allsopp,2024-12-04,2025-02-20,Affordable,Studio
PF100440,1 BR Townhouse in Mirdif,Townhouse,For Rent,Residential,28171,Yearly,1,1,659,42.75,Mirdif,Dubai,Mid-Tier,25.22559,55.426814,Semi-Furnished,Off-Plan,Savills UAE,2024-08-24,2025-02-20,Affordable,1 Bedroom
